Station_ID,Station Latitude (°N),Station Longitude (°E),Event Date,Event Mag,Event Latitude (°N),Event Longitude (°E),Event Depth (km),Strike (°),Dip (°),Rake (°),Total Displacement [mm],dE [mm],dN [mm],dH [mm],ux [m],uy [m],uz [m],uxx,uxy,uyx,uyy,uzx,uzy
AIGI,38.2419602042,22.072721371400007,2006-01-08T11:35:00.300000Z,6.72,35.93,23.29,64.0,201.0,44.0,55.0,1.0924002794506142,0.539205411017974,-0.9417301010349328,-0.1254604004355675,0.0006859468518392031,0.0008408775029207366,-0.0001254604004355675,3.360320613846492e-09,3.2198636837648364e-09,6.794351722987358e-09,7.700731054506915e-10,-1.1859962654083576e-09,-1.4415840029787174e-09
AKYR,34.9808312442,24.912607082500017,2006-01-08T11:35:00.300000Z,6.72,35.93,23.29,64.0,201.0,44.0,55.0,1.8743150054250426,-1.45814218721776,1.136094252289206,-0.3101095795565098,-0.000538083930814448,-0.0017684327727194027,-0.0003101095795565098,-5.452857045848934e-09,4.740659011523602e-09,4.116307036619018e-09,9.740728695522311e-09,2.0398436804262947e-09,4.521400083864586e-09
ANIK,36.8260211464,22.28206732130002,2006-01-08T11:35:00.300000Z,6.72,35.93,23.29,64.0,201.0,44.0,55.0,3.7173212516985905,2.4200288290799725,-2.561920374343338,-1.182582661075446,0.0015244979464134195,0.0031774016978397546,-0.0011825826610754459,-1.2925917011890936e-08,1.7563922864722535e-08,1.2925561998232446e-08,1.6620425575464423e-08,-5.406153092456678e-09,-1.830436916206016e-08
ANKY,35.8669629685,23.301054802299973,2006-01-08T11:35:00.300000Z,6.72,35.93,23.29,64.0,201.0,44.0,55.0,26.109427948993055,-0.6108616081820074,-2.8473315827333128,25.94651766186126,0.002877126255367249,0.000450103940282387,0.025946517661861263,4.0087431147984505e-07,-2.314664775548018e-08,-1.35721746330291e-08,3.763781540265241e-07,1.4855674184986928e-07,-3.355219434727165e-08
ANOP,35.2179647681,24.095992169999988,2006-01-08T11:35:00.300000Z,6.72,35.93,23.29,64.0,201.0,44.0,55.0,1.8552639744053534,-1.286132296894076,1.2670879584766919,-0.42703189002191166,-0.0007220199226022211,-0.0016547916518390299,-0.00042703189002191166,7.431312678949161e-11,-1.2592325259367681e-08,1.3923391811332468e-08,-3.130881030901626e-08,7.990861400431986e-09,-1.5523289535587974e-08
ARK1,35.1339802842,25.2689476187,2006-01-08T11:35:00.300000Z,6.72,35.93,23.29,64.0,201.0,44.0,55.0,1.5881374593754567,-1.3341208478184259,0.8261409031001258,-0.2445268114393273,-0.00029316282398467175,-0.001541571531584629,-0.0002445268114393273,-5.478497074884933e-09,2.3582768642632077e-09,-2.295611355474874e-09,1.0046758315822064e-08,6.707491134868731e-10,3.8190554252967684e-09
ARSA,38.3010818222,21.81672309459998,2006-01-08T11:35:00.300000Z,6.72,35.93,23.29,64.0,201.0,44.0,55.0,1.0321205335509958,0.5488829781158585,-0.8688208913978527,-0.09565840675496845,0.0006144121109331879,0.000823783966178826,-9.565840675496845e-05,2.3410029301754927e-09,3.2595987536202298e-09,5.9185064210657125e-09,1.5099904544860182e-09,-8.488465513087914e-10,-1.2490238989053947e-09
ATRS,37.2443620013,22.834881344,2006-01-08T11:35:00.300000Z,6.72,35.93,23.29,64.0,201.0,44.0,55.0,2.697400112981035,1.0331887410151568,-2.3362217998248793,-0.8663464070293239,0.0018107892136616788,0.00180179180157531,-0.0008663464070293239,1.4334737364158497e-08,5.392845290482757e-09,2.398990562357228e-08,-8.115801180272326e-09,-1.2790923643997122e-08,-6.119688397652757e-09
EGIO,38.254630011,22.0754897356,2006-01-08T11:35:00.300000Z,6.72,35.93,23.29,64.0,201.0,44.0,55.0,1.0812475553802956,0.5321613449824362,-0.9330932836658363,-0.12344028070308821,0.0006804080556978009,0.0008312061422158443,-0.0001234402807030882,3.3536405001814083e-09,3.1544134504744674e-09,6.711839157119939e-09,7.252858919757112e-10,-1.1643448288612584e-09,-1.4156612585287413e-09
GEYB,38.3341071147,21.76636574989999,2006-01-08T11:35:00.300000Z,6.72,35.93,23.29,64.0,201.0,44.0,55.0,1.003034835188483,0.5385286934135102,-0.8416636119941666,-0.08756763795408906,0.0005927692502227799,0.0008043851101152064,-8.756763795408906e-05,2.1659259875108075e-09,3.152160589147386e-09,5.636283434866774e-09,1.5485723129821006e-09,-7.666608415434131e-10,-1.1734776777889383e-09
GVDS,34.8314719014,24.08120616039997,2006-01-08T11:35:00.300000Z,6.72,35.93,23.29,64.0,201.0,44.0,55.0,1.5310223953726338,-0.9634697775888018,1.1597604604949738,-0.26591584585734795,-0.0007374529767001231,-0.0013150975040698148,-0.00026591584585734795,5.542321306026172e-09,-8.219592486923566e-09,1.5493801317472355e-08,-1.3653191672659517e-08,5.542728863757551e-09,-4.2034120374518135e-09
HERA,35.3241276658,25.141503162899998,2006-01-08T11:35:00.300000Z,6.72,35.93,23.29,64.0,201.0,44.0,55.0,1.7244646040481653,-1.4777464613347195,0.8237488939034788,-0.33388819449106655,-0.00023945887440066094,-0.001674800373675997,-0.00033388819449106655,-6.600450915712765e-09,1.6852533150872263e-09,-5.875784682820076e-09,1.0414309175710274e-08,1.7398445950300618e-10,4.991403984961411e-09
IDI0,35.288808933,24.890399762000012,2006-01-08T11:35:00.300000Z,6.72,35.93,23.29,64.0,201.0,44.0,55.0,2.0322123069020748,-1.682688708080627,1.0511491596268878,-0.4399216023769359,-0.00037831057871876017,-0.0019476234107536905,-0.0004399216023769359,-8.44839209690347e-09,3.1365221799591874e-09,-3.4670703988446303e-09,1.092005881485993e-08,8.903501522075879e-10,6.30507953512193e-09
IERA,35.0530693748,25.797232298600026,2006-01-08T11:35:00.300000Z,6.72,35.93,23.29,64.0,201.0,44.0,55.0,1.1283983902239678,-0.9738111035353633,0.5578060296394057,-0.11758951904486392,-0.00017177410263505277,-0.0011090307884521339,-0.00011758951904486392,-3.2113541481371638e-09,1.0996329006398014e-09,-2.560461433176695e-09,6.953084476041235e-09,3.743331625447863e-10,1.8882667539526775e-09
JPA1,37.0407410126,22.092233399500003,2006-01-08T11:35:00.300000Z,6.72,35.93,23.29,64.0,201.0,44.0,55.0,2.9597715849621875,1.9317039228339559,-2.117171809369995,-0.7391558152828603,0.0012842893868048738,0.0025621274923046805,-0.0007391558152828603,-5.983255633799702e-09,1.436900511991677e-08,1.3601463343346899e-08,1.492720136078986e-08,-4.677529832616813e-09,-1.1560210758343436e-08
KAL3,38.0305509928,22.1022587974,2006-01-08T11:35:00.300000Z,6.72,35.93,23.29,64.0,201.0,44.0,55.0,1.302562928378796,0.6583496722409514,-1.1104272394704529,-0.17377352298036247,0.0008007417136941253,0.0010125639007232748,-0.00017377352298036247,3.7408975563715305e-09,4.355452551627368e-09,8.499145714120771e-09,1.347772500911224e-09,-1.7193485726195862e-09,-2.002891421816594e-09
KALM,37.033726265,22.111371255200027,2006-01-08T11:35:00.300000Z,6.72,35.93,23.29,64.0,201.0,44.0,55.0,3.002599788872413,1.9500796956325153,-2.1523505033062573,-0.7616967793917448,0.0013105462388743744,0.0025918896705247954,-0.0007616967793917448,-6.0173832649181634e-09,1.4655210258990007e-08,1.4027401099824338e-08,1.4886555289956391e-08,-4.892224518999964e-09,-1.1871809247266451e-08
KAPS,36.1428491112,22.99968458759997,2006-01-08T11:35:00.300000Z,6.72,35.93,23.29,64.0,201.0,44.0,55.0,6.705415494901114,-1.9018945092240636,1.2603318417782405,6.305311878380258,-0.0004950431028532404,-0.0022272340249588074,0.006305311878380258,4.650885162963204e-08,-6.746777952622025e-08,-1.6664864323220466e-07,-1.0646198818976717e-07,3.0033426539518704e-07,3.6303460092601644e-07
KERY,36.4932710153,22.383513569599984,2006-01-08T11:35:00.300000Z,6.72,35.93,23.29,64.0,201.0,44.0,55.0,3.9655270359686168,2.805195450561383,-2.320089021906732,-1.5727269590032553,0.0011606975568916739,0.003450321110686383,-0.0015727269590032553,-3.0042653550565855e-08,1.0062003630249018e-08,-2.3385969139212156e-08,5.735275001709587e-09,1.41089522527528e-08,-1.7735269687873434e-08
KISM,35.4954141296,23.6541720404,2006-01-08T11:35:00.300000Z,6.72,35.93,23.29,64.0,201.0,44.0,55.0,5.992910617377593,1.7389102555111828,-3.0882529952503033,4.832583390742745,0.0022599628457262017,0.0027301434715654715,0.004832583390742745,4.523337492169358e-08,-1.5506352371058455e-07,-5.147380781367101e-08,-1.392624226036224e-07,-6.907086497798719e-08,-2.849755843781953e-07
KITH,36.2745242158,23.01516387919997,2006-01-08T11:35:00.300000Z,6.72,35.93,23.29,64.0,201.0,44.0,55.0,1.5803647374037146,0.262065253264154,-0.008171950049085329,1.5584632576654163,-8.628661484720579e-05,0.00024758755589532333,0.0015584632576654163,-4.6031021592217955e-08,-8.267055484386757e-08,-1.1716568469015172e-07,-9.901138414198409e-08,2.0453962072299254e-07,2.0035371436979303e-07
KOPA,37.2895154126,21.81823142090002,2006-01-08T11:35:00.300000Z,6.72,35.93,23.29,64.0,201.0,44.0,55.0,2.1959051813869728,1.4557424056435473,-1.5949905906330568,-0.398520551346232,0.0009673605748856118,0.0019306461234399816,-0.000398520551346232,-2.742014131347318e-09,9.871372940397454e-09,1.0038255932821422e-08,1.1235000674635347e-08,-2.6241198218922607e-09,-6.165292557056541e-09
KOR1,36.7975013801,21.95629645909997,2006-01-08T11:35:00.300000Z,6.72,35.93,23.29,64.0,201.0,44.0,55.0,3.0312854278030437,2.231798697186796,-1.889894302306553,-0.7975371127136519,0.0009645632058732784,0.0027608411255504936,-0.0007975371127136519,-1.3252622880277705e-08,1.1501007480413593e-08,9.43145367309889e-10,2.0045809811913322e-08,-5.589834776752472e-10,-1.3441527948399286e-08
KORI,37.94156644,22.93094050510001,2006-01-08T11:35:00.300000Z,6.72,35.93,23.29,64.0,201.0,44.0,55.0,1.216318103107203,0.40348844173184584,-1.1142149609582321,-0.27413833389724335,0.0008956119529322792,0.0007759878424300065,-0.00027413833389724335,8.200238259895302e-09,-3.521142425446208e-11,8.681777803240705e-09,-3.849585842839712e-09,-3.2754196353002727e-09,-1.6392369630400003e-09
KOUN,38.2094545658,22.0458210063,2006-01-08T11:35:00.300000Z,6.72,35.93,23.29,64.0,201.0,44.0,55.0,1.1212420164605423,0.5615603619921379,-0.9618558137351256,-0.12910078582139412,0.0006967245253426124,0.0008689600579790263,-0.00012910078582139412,3.28877613574262e-09,3.427534119631168e-09,6.971890554531416e-09,9.753261710378808e-10,-1.2212751266390752e-09,-1.5064561341519534e-09
KRIN,38.1894059587,21.959839376899996,2006-01-08T11:35:00.300000Z,6.72,35.93,23.29,64.0,201.0,44.0,55.0,1.1356998799386386,0.5877945273239346,-0.9636654541137304,-0.12514273246357066,0.0006890124861410885,0.0008941002783501781,-0.00012514273246357066,2.93482358056685e-09,3.6527018658318777e-09,6.917701806006255e-09,1.3978005266943637e-09,-1.163696906890177e-09,-1.526241862503869e-09
KRYO,37.9723055725,22.617881578499976,2006-01-08T11:35:00.300000Z,6.72,35.93,23.29,64.0,201.0,44.0,55.0,1.3135852391498963,0.52712845935618,-1.1781419286271448,-0.2441789586757684,0.0009109842990755179,0.0009143251191400109,-0.0002441789586757684,6.870379712646041e-09,2.4474525396160707e-09,9.501171415222048e-09,-1.8848653546480165e-09,-2.7884079176463574e-09,-2.017353793927152e-09
LAM8,38.3203925224,21.973148346000016,2006-01-08T11:35:00.300000Z,6.72,35.93,23.29,64.0,201.0,44.0,55.0,1.025181122586571,0.5174676264140141,-0.8787682993017727,-0.10483256108470562,0.0006349570714203057,0.000798020040912277,-0.00010483256108470562,2.887455064167617e-09,3.0223079301115674e-09,6.127232515206077e-09,9.336569548527073e-10,-9.559444836143686e-10,-1.2663112834454238e-09
LYGO,37.6124995546,23.037670434099997,2006-01-08T11:35:00.300000Z,6.72,35.93,23.29,64.0,201.0,44.0,55.0,1.6153182855734416,0.4920358570906804,-1.468720699705897,-0.458272173822917,0.0011948390160283484,0.0009856974709229749,-0.000458272173822917,1.2194956029431917e-08,-1.2084226823341558e-09,1.257778385000581e-08,-6.988169425901864e-09,-6.371921554038378e-09,-2.108087271643525e-09
MEN1,37.5610401117,23.38605018049998,2006-01-08T11:35:00.300000Z,6.72,35.93,23.29,64.0,201.0,44.0,55.0,1.2858076370106029,0.275736484644866,-1.1686984030960383,-0.4597985570130164,0.000992258834991988,0.0006762462352899873,-0.0004597985570130164,1.1662298322970736e-08,-7.33967954633703e-09,8.501414364470943e-09,-8.628880388389785e-09,-6.326039355465194e-09,-3.466316698605029e-10
MET4,36.8255146835,21.70457026790001,2006-01-08T11:35:00.300000Z,6.72,35.93,23.29,64.0,201.0,44.0,55.0,2.4958060067955747,1.9294168191170165,-1.4853093116262701,-0.5479549346995085,0.0006952145513431374,0.002333553029330186,-0.0005479549346995086,-1.0407599926974624e-08,7.854756729820086e-09,-2.0126207732394146e-09,1.7929621987884948e-08,2.0284925072209657e-10,-9.317472137266793e-09
MOI2,35.0502098957,24.8720833141,2006-01-08T11:35:00.300000Z,6.72,35.93,23.29,64.0,201.0,44.0,55.0,1.9602804610017,-1.538425949733813,1.1626913003152455,-0.35226981582573563,-0.000534143286899505,-0.0018529156515349893,-0.00035226981582573563,-6.292372568163119e-09,4.7133440106149915e-09,3.40518582019932e-09,1.0126368692157055e-08,2.0964612430742947e-09,5.069666095711306e-09
MOIR,35.053947751,24.877751640099973,2006-01-08T11:35:00.300000Z,6.72,35.93,23.29,64.0,201.0,44.0,55.0,1.9574903205746594,-1.5389902027106395,1.157367272577973,-0.35182169840641125,-0.0005289706686315288,-0.0018515344661662186,-0.00035182169840641125,-6.332150571479863e-09,4.6733870208031614e-09,3.2371609451074404e-09,1.018576950228341e-08,2.058910093975086e-09,5.0774716609968786e-09
MOL1,36.8055826723,22.850798760899977,2006-01-08T11:35:00.300000Z,6.72,35.93,23.29,64.0,201.0,44.0,55.0,4.226591211332156,1.8435583404829596,-3.3238003397244937,-1.8487069033768648,0.0024423627164055217,0.0029122534942255945,-0.001848706903376865,1.3659543796429255e-09,7.199118936724116e-09,3.1625002268279476e-08,-1.8445765813404177e-08,-2.104887661138472e-08,-1.1422295114076643e-08
MTNA,37.6126904064,23.32955878849998,2006-01-08T11:35:00.300000Z,6.72,35.93,23.29,64.0,201.0,44.0,55.0,1.2930337646167995,0.29794758185629555,-1.1808592452243316,-0.4344364140737994,0.0009956522138078738,0.000701340136955865,-0.0004344364140737994,1.143316142953162e-08,-5.946717005729754e-09,8.788055370967145e-09,-8.008720383783911e-09,-5.91255162540276e-09,-7.052545238848753e-10
NEA1,35.2613556909,25.61037009860001,2006-01-08T11:35:00.300000Z,6.72,35.93,23.29,64.0,201.0,44.0,55.0,1.2578643016398026,-1.1040981967975372,0.5758057127960123,-0.17786948664594293,-0.00014188753604862936,-0.0012371147780922132,-0.00017786948664594293,-3.8717622729139595e-09,7.2899766580577e-10,-4.800535919669118e-09,7.76315431471532e-09,1.8314983968894684e-10,2.693387822783311e-09
NEAB,36.5092093893,23.06030912630001,2006-01-08T11:35:00.300000Z,6.72,35.93,23.29,64.0,201.0,44.0,55.0,3.328930639609771,1.4466463146669035,-2.3800203511996005,-1.8233202602584986,0.0017035087410404992,0.0022034836965728194,-0.0018233202602584986,-4.142514879969455e-08,-4.575650106355706e-08,-1.0139078905575471e-08,-6.308593273413548e-08,3.063048788659788e-08,4.668408292777909e-08
PA01,35.2393827075,23.6406990589,2006-01-08T11:35:00.300000Z,6.72,35.93,23.29,64.0,201.0,44.0,55.0,2.336802509842298,0.139174956341911,-1.5877498929166525,1.7088963043659644,0.0014324163784677074,0.0006989296886147217,0.0017088963043659644,-4.869519943714405e-10,-1.0970540710457253e-07,-2.5038134578229144e-08,-7.343406111076407e-08,-3.4607936179146774e-08,-1.0703787479171413e-07
PAT0,38.2836555506,21.78675058760001,2006-01-08T11:35:00.300000Z,6.72,35.93,23.29,64.0,201.0,44.0,55.0,1.0429028993088636,0.5611630982446866,-0.8738329996491564,-0.09569912893760135,0.0006146905156213522,0.0008370446249230529,-9.569912893760135e-05,2.235989963858465e-09,3.3503583353606215e-09,5.935541409372013e-09,1.664320772775743e-09,-8.456028421911401e-10,-1.2673685707088884e-09
PATR,38.2408574038,21.73295605430002,2006-01-08T11:35:00.300000Z,6.72,35.93,23.29,64.0,201.0,44.0,55.0,1.0701775095513841,0.5890969731059431,-0.8881370680639838,-0.0972481699453992,0.0006180339084558284,0.0008682492633977218,-9.72481699453992e-05,2.031863548399763e-09,3.5525838838081547e-09,6.003509018877027e-09,1.993724060280002e-09,-8.518690744697218e-10,-1.3201451600957894e-09
PSAR,38.3217449492,22.184301988100003,2006-01-08T11:35:00.300000Z,6.72,35.93,23.29,64.0,201.0,44.0,55.0,1.0203644133063174,0.47812949357988943,-0.8933581014674851,-0.12019578134608161,0.0006626753511513872,0.0007665232475697892,-0.00012019578134608161,3.639999925262999e-09,2.623866538412087e-09,6.37690211991188e-09,1.5531370455458828e-10,-1.136630757433405e-09,-1.297850521030521e-09
PSAT,38.3286830797,21.8714067075,2006-01-08T11:35:00.300000Z,6.72,35.93,23.29,64.0,201.0,44.0,55.0,1.014656238560915,0.5283857141770676,-0.8608783511745485,-0.09604313605440784,0.0006143426732930779,0.0008018017699148172,-9.604313605440784e-05,2.522848310933599e-09,3.1016959413543365e-09,5.891379057238445e-09,1.2483105173890839e-09,-8.580497473419199e-10,-1.221430925970336e-09
PTKG,36.4212589745,22.48954017379998,2006-01-08T11:35:00.300000Z,6.72,35.93,23.29,64.0,201.0,44.0,55.0,3.8523983253727345,2.676852551201358,-2.2267297667663204,-1.6483651968718094,0.0011195331653425789,0.003297045727128217,-0.0016483651968718094,-3.446993470322233e-08,5.371794628206999e-09,-3.9522097011937615e-08,-1.157185463794635e-08,2.7625232186028346e-08,-7.69374738754772e-09
PYL1,36.9141727594,21.69530667409998,2006-01-08T11:35:00.300000Z,6.72,35.93,23.29,64.0,201.0,44.0,55.0,2.43852190150076,1.8456473376851208,-1.5103668691324401,-0.5086913500559829,0.0007486280938619472,0.002264327306631647,-0.0005086913500559828,-9.080160877257509e-09,8.487997646330759e-09,1.0793561497927477e-09,1.7118735945637767e-08,-6.031837278141693e-10,-8.62444075493203e-09
PYLO,36.8955119677,21.741968322200023,2006-01-08T11:35:00.300000Z,6.72,35.93,23.29,64.0,201.0,44.0,55.0,2.533428080649409,1.9085224199233832,-1.572515283726011,-0.5504504472891719,0.00078411622296512,0.00234529825262908,-0.0005504504472891719,-9.660676158055063e-09,8.992826880583609e-09,1.1722403460647629e-09,1.7703289380745683e-08,-6.363957132025192e-10,-9.335621129201006e-09
PYRG,37.6787726789,21.462209398500026,2006-01-08T11:35:00.300000Z,6.72,35.93,23.29,64.0,201.0,44.0,55.0,1.475638216169973,0.9739555651587478,-1.09628881889914,-0.1645281972013704,0.000674439324277798,0.001302140628048551,-0.0001645281972013704,-7.032716485894928e-10,5.755471990196149e-09,6.458213925167841e-09,6.565613969396796e-09,-1.1350317147665786e-09,-2.5545697464637033e-09
RETH,35.3877574853,24.6130793154,2006-01-08T11:35:00.300000Z,6.72,35.93,23.29,64.0,201.0,44.0,55.0,2.3320498954754094,-1.8855193493873748,1.2195635521440642,-0.6292362357290249,-0.00046285095808315524,-0.002197336447891843,-0.0006292362357290249,-1.098091740547687e-08,3.447024405412096e-09,-3.9702259686979514e-09,5.95740826305032e-09,1.3300784491868967e-09,6.844131299009966e-09
RLSO,38.0558343494,21.46474375280002,2006-01-08T11:35:00.300000Z,6.72,35.93,23.29,64.0,201.0,44.0,55.0,1.159649632544379,0.7081682625969052,-0.9130004413967983,-0.09856559298277584,0.0005985745332714454,0.0009883221247443258,-9.856559298277584e-05,8.048628316887488e-10,4.172703514435993e-09,5.740936076647619e-09,3.6254251717736503e-09,-7.910667472825868e-10,-1.4999499853304986e-09
ROD3,38.3080478271,21.89228311609997,2006-01-08T11:35:00.300000Z,6.72,35.93,23.29,64.0,201.0,44.0,55.0,1.0318380707940562,0.5355646043824228,-0.8762198836743104,-0.10049415070777223,0.0006260925435844222,0.0008140017548393316,-0.00010049415070777223,2.6070854663686203e-09,3.169223255076827e-09,6.046849991528519e-09,1.244106789184589e-09,-9.043541166614306e-10,-1.2643046284250808e-09
SFAK,35.2007208585,24.13770803440002,2006-01-08T11:35:00.300000Z,6.72,35.93,23.29,64.0,201.0,44.0,55.0,1.986066704757667,-1.3760932891645978,1.3496197219735748,-0.47891003468616966,-0.0007668308252281597,-0.0017683542122277907,-0.00047891003468616966,-9.689906396421087e-10,-8.622274929811436e-09,1.4393548107624871e-08,-2.505919250302033e-08,8.042848678200304e-09,-1.0639860759894714e-08
SIVA,35.017692185,24.8120244813,2006-01-08T11:35:00.300000Z,6.72,35.93,23.29,64.0,201.0,44.0,55.0,1.9889627068582372,-1.5329980728367072,1.215395988404734,-0.3587508178687082,-0.0005852925291984917,-0.0018667359629084695,-0.0003587508178687082,-5.861813705626269e-09,5.059120205292256e-09,5.05999569833306e-09,9.423097257573824e-09,2.4866483431977404e-09,4.987233363481493e-09
SPET,37.267393172,23.155387420299974,2006-01-08T11:35:00.300000Z,6.72,35.93,23.29,64.0,201.0,44.0,55.0,2.1744473547827288,0.580588470164154,-1.9362632565288165,-0.8012633327754842,0.0015995931772586625,0.0012359207246173468,-0.0008012633327754842,1.7513632413579185e-08,-5.92714307511823e-09,1.778726868763444e-08,-1.4063027127781144e-08,-1.2724589286464631e-08,-1.4993146023672223e-09
SPR2,37.0460153941,22.37209692469997,2006-01-08T11:35:00.300000Z,6.72,35.93,23.29,64.0,201.0,44.0,55.0,3.317320666320864,1.9045956712715661,-2.537495355840562,-0.9686325677266336,0.0016864099511138542,0.0026874502467437375,-0.0009686325677266336,-1.4300886061129362e-09,1.667010937641149e-08,2.212849926487134e-08,9.183138555310268e-09,-9.067364100128858e-09,-1.3315787032934103e-08
STRF,37.2453963528,21.015625963899996,2006-01-08T11:35:00.300000Z,6.72,35.93,23.29,64.0,201.0,44.0,55.0,1.4321273151567162,1.116951064343229,-0.8830802925212835,-0.15355182721490945,0.00042414701345216965,0.0013592313247407714,-0.00015355182721490945,-3.7001872055601163e-09,3.909308218417806e-09,8.596904840322491e-10,9.197820607449297e-09,-3.5607642358332744e-10,-2.6323431869962545e-09
TRIP,37.5081416643,22.36939511819997,2006-01-08T11:35:00.300000Z,6.72,35.93,23.29,64.0,201.0,44.0,55.0,2.1340206696135557,1.0670132050549066,-1.7900773965973813,-0.4595105578411515,0.0012887978849450976,0.001637649009199299,-0.0004595105578411515,5.996260936178572e-09,8.727291848124117e-09,1.6376372543115157e-08,2.091987092812506e-09,-5.285174914669673e-09,-5.18580778428548e-09
TUC2,35.5331895144,24.070559825299995,2006-01-08T11:35:00.300000Z,6.72,35.93,23.29,64.0,201.0,44.0,55.0,1.240758224836342,-0.8912774401847551,0.8455260322594815,-0.1737562254662539,-0.00046996128509629864,-0.0011350886032030216,-0.0001737562254662539,-8.173056649908973e-12,-1.2809948095345725e-08,-1.1043535465234696e-09,-7.299175054481013e-08,5.033551483560058e-09,-5.33430010054027e-08
VALI,38.2337388126,22.134852875499973,2006-01-08T11:35:00.300000Z,6.72,35.93,23.29,64.0,201.0,44.0,55.0,1.0990737718247179,0.5310076292928392,-0.9531776218004798,-0.13208510455230138,0.0006995718553854946,0.0008373266389055806,-0.00013208510455230138,3.627771279398636e-09,3.1334551195725724e-09,6.944952830243535e-09,5.308945425435014e-10,-1.2671276202344673e-09,-1.4689725918929411e-09
VAM0,35.4057111464,24.198751889499988,2006-01-08T11:35:00.300000Z,6.72,35.93,23.29,64.0,201.0,44.0,55.0,2.1133695420027685,-1.5579214796677556,1.2909982651210046,-0.6103564235013653,-0.0006469415847377008,-0.0019170974005753294,-0.0006103564235013653,-7.307245099670667e-09,-4.433831768391623e-09,4.682929471622648e-09,-3.0765279156266174e-08,5.946596022171528e-09,-1.3673516722931065e-08
VASS,37.430444814,21.899260635400022,2006-01-08T11:35:00.300000Z,6.72,35.93,23.29,64.0,201.0,44.0,55.0,2.0566978906159803,1.2802645085235933,-1.5692176654815793,-0.3584479318110359,0.001006185130612014,0.0017575872030655831,-0.0003584479318110359,-3.0766894106622244e-10,9.365257231812447e-09,1.1474540980121134e-08,8.443198859899016e-09,-2.891514610575158e-09,-5.20671889175471e-09
VLY1,37.1641089089,21.9835142279,2006-01-08T11:35:00.300000Z,6.72,35.93,23.29,64.0,201.0,44.0,55.0,2.5824741513039675,1.6853743581126925,-1.874782279142245,-0.5602476425506722,0.0011462758868179407,0.0022452943932743663,-0.0005602476425506722,-3.808400226110547e-09,1.2269471525086382e-08,1.2432918310224344e-08,1.298107882320605e-08,-3.78299843787897e-09,-8.664476302282643e-09
XRSO,35.3105432001,23.5326980959,2006-01-08T11:35:00.300000Z,6.72,35.93,23.29,64.0,201.0,44.0,55.0,5.024492234026389,0.5093527987615819,-3.487402631843532,3.5810759304426982,0.0030732351183166,0.0017252951335180317,0.003581075930442698,-1.2551182146115926e-08,-1.6059874588171767e-07,-5.400298044457553e-08,-6.79773647752492e-08,-8.532909162986685e-08,-1.7083660845432258e-07
ZAK2,37.7791591052,20.885047301399997,2006-01-08T11:35:00.300000Z,6.72,35.93,23.29,64.0,201.0,44.0,55.0,1.1084520364938666,0.7951655751249284,-0.7689037110933554,-0.07186590575862517,0.0004328715978312858,0.0010179014631033212,-7.186590575862517e-05,-1.3199794472499972e-09,3.4597938804554407e-09,3.0189347615107645e-09,5.466489956350772e-09,-4.141365536329203e-10,-1.3281587183289522e-09
ZAKY,37.7811732052,20.87782337089999,2006-01-08T11:35:00.300000Z,6.72,35.93,23.29,64.0,201.0,44.0,55.0,1.104112562149091,0.792571558362944,-0.7654132182026981,-0.07097520813744568,0.00043054255445781897,0.0010142288590481996,-7.097520813744568e-05,-1.3183270693639059e-09,3.4362425185794143e-09,2.990608237123761e-09,5.4444312604137556e-09,-4.091286598568523e-10,-1.3157335303305254e-09
ZNTE,37.7175841304,20.7307785676,2006-01-08T11:35:00.300000Z,6.72,35.93,23.29,64.0,201.0,44.0,55.0,1.0619128535461009,0.7859262528437491,-0.7113831390699749,-0.06255288214267185,0.00038248259465042955,0.000988662283214821,-6.255288214267185e-05,-1.589589042036069e-09,3.0478093301635205e-09,2.2112705220878343e-09,5.5086670796460014e-09,-3.2820249825497454e-10,-1.2099044877026366e-09
