Station_ID,Station Latitude (°N),Station Longitude (°E),Event Date,Event Mag,Event Latitude (°N),Event Longitude (°E),Event Depth (km),Strike (°),Dip (°),Rake (°),Total Displacement [mm],dE [mm],dN [mm],dH [mm],ux [m],uy [m],uz [m],uxx,uxy,uyx,uyy,uzx,uzy
ABEL,38.9231888039,21.214994834200013,2018-10-25T22:54:58.900000Z,6.84,37.27,20.6,16.0,114.0,83.0,63.0,1.2386697716859858,-0.929237091932279,-0.8076798942136365,-0.13592063400713617,-0.0005203873155554817,-0.001115807073982178,-0.00013592063400713617,-3.808844921372689e-09,4.130870329449235e-09,-1.9523194539010155e-08,1.1999755432542615e-08,4.72839530527011e-09,2.997724418245602e-09
AGRI,38.623994895,21.409030168699985,2018-10-25T22:54:58.900000Z,6.84,37.27,20.6,16.0,114.0,83.0,63.0,2.409474147335234,-1.7105643729360314,-1.6966022746516325,-0.03280113360426551,-0.000872607999074404,-0.0022456725122471655,-3.280113360426551e-05,-1.0830675834832323e-08,1.0039990537456678e-08,-2.3398255682003858e-08,3.197034038804451e-08,7.0196065766506266e-09,2.6854256556438316e-09
AIGI,38.2419602042,22.072721371400007,2018-10-25T22:54:58.900000Z,6.84,37.27,20.6,16.0,114.0,83.0,63.0,3.716010268010788,-3.0302835164929154,-2.1198777297728997,0.36363791392790557,-0.0019060697903223733,-0.0031691320158580005,0.00036363791392790557,-3.29453384382807e-09,2.7796773982806126e-08,1.5846433012682946e-08,3.7748599995468725e-08,2.665230453757262e-09,-2.147982574031543e-09
AMFI,38.8924578869,21.14973226500001,2018-10-25T22:54:58.900000Z,6.84,37.27,20.6,16.0,114.0,83.0,63.0,1.236070773323783,-0.9322387496864304,-0.7932508195706182,-0.17191569881450097,-0.0005289982997451759,-0.0011038463425826484,-0.00017191569881450097,-3.626535569594261e-09,4.168816092714215e-09,-2.1358975865208913e-08,1.1735947571879098e-08,4.882452802895518e-09,3.6145343524940447e-09
ANAV,37.7333572797,23.904107016900014,2018-10-25T22:54:58.900000Z,6.84,37.27,20.6,16.0,114.0,83.0,63.0,1.0066541111139973,-0.9269604147392242,-0.34503181874857375,0.18721627327838997,-0.000706483392587387,-0.0006922310181151081,0.00018721627327838997,5.034053502068189e-09,1.6504859332452616e-09,5.739861442117975e-09,2.2959074444981047e-10,-1.2916576643140794e-09,1.5331701164347363e-10
ANIK,36.8260211464,22.28206732130002,2018-10-25T22:54:58.900000Z,6.84,37.27,20.6,16.0,114.0,83.0,63.0,1.1577399559409949,-0.9132991072480425,-0.706251968422813,-0.08634062416433552,-0.000547081696093521,-0.0010166654907100003,-8.634062416433552e-05,1.1412316769820499e-08,-3.84233504333947e-08,1.2843755842226979e-08,-7.589562856678062e-09,7.860347107484054e-10,7.228689430924731e-09
ANOC,38.5944987007,21.92510634979999,2018-10-25T22:54:58.900000Z,6.84,37.27,20.6,16.0,114.0,83.0,63.0,2.538786476175259,-1.9276551832574538,-1.6385966947703052,0.21114719500597845,-0.0010945233175800873,-0.0022809805656613946,0.00021114719500597845,-7.805767561961467e-09,1.4189341938863927e-08,-3.401333920030679e-09,2.8723608502610207e-08,3.9899533572788805e-09,-1.255755145950857e-09
ARG2,38.175273488,20.484779164899976,2018-10-25T22:54:58.900000Z,6.84,37.27,20.6,16.0,114.0,83.0,63.0,2.418631058854797,-1.5445633857338583,-0.5078562058064597,-1.790581531383395,-0.0012044651367633108,-0.0010921802564812788,-0.001790581531383395,1.0784259074530627e-08,1.5482794999419337e-08,-1.095556494362715e-07,-6.875209247982452e-09,-1.011587436080528e-08,4.146394581719716e-08
ARKI,38.7550567243,23.03360943040002,2018-10-25T22:54:58.900000Z,6.84,37.27,20.6,16.0,114.0,83.0,63.0,1.3868246363486492,-1.1438717480880858,-0.7479663160530152,0.2353431238841519,-0.000740753531066396,-0.0011485557854264972,0.0002353431238841519,-1.4218107013538385e-10,6.56822124753273e-09,3.901626235066834e-09,8.305922294457031e-09,1.6157580564696236e-10,-1.4657921116106276e-09
ARSA,38.3010818222,21.81672309459998,2018-10-25T22:54:58.900000Z,6.84,37.27,20.6,16.0,114.0,83.0,63.0,4.036906099037491,-3.1360331876831182,-2.527137882599047,0.2747377304429949,-0.001837029294666337,-0.0035841949448174315,0.0002747377304429949,-1.1479111037528058e-08,2.9315751374849487e-08,5.33152534170292e-09,5.1276134288835256e-08,5.618286030121017e-09,-8.929422144340088e-10
ASSO,38.3778173592,20.541719498600003,2018-10-25T22:54:58.900000Z,6.84,37.27,20.6,16.0,114.0,83.0,63.0,1.6419955254938368,-1.186465198495946,-0.343563188356066,-1.0818567253136484,-0.0009441501548206332,-0.0007964394620983972,-0.0010818567253136485,4.4584704048470835e-09,1.0804772370889208e-08,-6.34125357163834e-08,-1.9226693973172686e-09,1.2932113168372613e-10,2.2216416279854543e-08
ATAL,38.6530574661,22.999356368199983,2018-10-25T22:54:58.900000Z,6.84,37.27,20.6,16.0,114.0,83.0,63.0,1.5068108155793327,-1.253554000767598,-0.7969411200460477,0.2529151088530579,-0.000821033407414351,-0.0012379082864131252,0.0002529151088530579,2.79002423421559e-10,7.423517957877938e-09,5.001304640237659e-09,8.907473496486943e-09,3.412788688928481e-11,-1.548982331573625e-09
ATER,38.3172503054,20.41656152550001,2018-10-25T22:54:58.900000Z,6.84,37.27,20.6,16.0,114.0,83.0,63.0,1.750784320451024,-1.1347531121672094,0.22214027291482577,-1.314623448107219,-0.0011270011400634772,-0.0002586104342818807,-0.0013146234481072189,7.732637784833704e-09,1.5434731273365586e-08,-6.011379149277136e-08,-1.4071798384927324e-08,-5.5320408662447255e-09,2.5006793841871814e-08
ATRS,37.2443620013,22.834881344,2018-10-25T22:54:58.900000Z,6.84,37.27,20.6,16.0,114.0,83.0,63.0,1.775056407790382,-1.6861472881127322,-0.5150115232757178,0.2061448629507856,-0.0013308981378492568,-0.0011563043254204652,0.0002061448629507856,1.828594991432594e-08,-5.468084311427591e-09,1.5282004207823112e-08,-5.3023945802545504e-09,-2.36001970581198e-09,2.8747272260344675e-09
DION,38.0785341305,23.932647686700022,2018-10-25T22:54:58.900000Z,6.84,37.27,20.6,16.0,114.0,83.0,63.0,1.0286512836101265,-0.9270523072581139,-0.3979602739805068,0.20081111327197032,-0.0006850393983763858,-0.0007406209440269373,0.00020081111327197032,3.670844910345057e-09,2.989722995604776e-09,5.3332333566211304e-09,1.6116891783981204e-09,-1.0687579348446542e-09,-3.400518078647026e-10
DYNG,38.0785525841,23.932434752099997,2018-10-25T22:54:58.900000Z,6.84,37.27,20.6,16.0,114.0,83.0,63.0,1.0287866028851704,-0.927171534130848,-0.39802167772672425,0.20083218027264205,-0.0006851233423907921,-0.0007407255330783569,0.00020083218027264205,3.6712934291334777e-09,2.990507688253751e-09,5.334171999612167e-09,1.6122458529504155e-09,-1.068854775086016e-09,-3.4016938630133266e-10
EGIO,38.254630011,22.0754897356,2018-10-25T22:54:58.900000Z,6.84,37.27,20.6,16.0,114.0,83.0,63.0,3.656449763169023,-2.9759093206349654,-2.093853166582932,0.359676942168069,-0.0018669816341527756,-0.003123241416475464,0.000359676942168069,-3.521659548626579e-09,2.7106200679340318e-08,1.501434659785641e-08,3.721286412918952e-08,2.6745305682028084e-09,-2.1579832810538465e-09
EYPA,38.4267588657,21.92839763080002,2018-10-25T22:54:58.900000Z,6.84,37.27,20.6,16.0,114.0,83.0,63.0,3.2009066783536615,-2.4815421619305704,-2.003974653485143,0.2680254657287662,-0.0014519116466127358,-0.002840056070516961,0.0002680254657287662,-8.580431966924204e-09,2.084855318543552e-08,2.155564574995627e-09,3.720965444060759e-08,4.2142965538077985e-09,-1.5432145837241907e-09
FISK,38.4597236857,20.57705535719998,2018-10-25T22:54:58.900000Z,6.84,37.27,20.6,16.0,114.0,83.0,63.0,1.4470094694799722,-1.0855392684057963,-0.3433051478239815,-0.8930747320304577,-0.0008520546843682197,-0.0007551534563382534,-0.0008930747320304577,2.9212998286867194e-09,9.187634728902184e-09,-5.2619045632692644e-08,-1.6378303363129195e-10,1.904730140363037e-09,1.7673320766223673e-08
GAL3,38.3753977349,22.39165158489999,2018-10-25T22:54:58.900000Z,6.84,37.27,20.6,16.0,114.0,83.0,63.0,2.6246707716789586,-2.165562988805333,-1.4440719247919052,0.33747574320258655,-0.0013909832646121778,-0.00220003916783873,0.00033747574320258655,-6.668737774821235e-10,1.683885463108041e-08,1.061899500489853e-08,2.14082073710447e-08,9.36272978388312e-10,-2.2763157255977953e-09
GEYB,38.3341071147,21.76636574989999,2018-10-25T22:54:58.900000Z,6.84,37.27,20.6,16.0,114.0,83.0,63.0,3.9323703816466353,-3.0113071786842363,-2.5174277531080578,0.2410879547754402,-0.001727035881168515,-0.0035245936619233698,0.0002410879547754402,-1.2951223035907377e-08,2.7405351284377265e-08,8.167016207883036e-10,5.1655398817676846e-08,6.157798274031096e-09,-4.904511318923683e-10
HALK,38.4654495787,23.6025408699,2018-10-25T22:54:58.900000Z,6.84,37.27,20.6,16.0,114.0,83.0,63.0,1.180397964935241,-1.0254109096127173,-0.5395799557087512,0.22522276409772668,-0.0007172925388378992,-0.0009100030087219046,0.00022522276409772668,2.1861107555200825e-09,4.810949285358415e-09,5.237955134870203e-09,4.176811940024381e-09,-6.953516662405376e-10,-9.313036377858298e-10
ISTI,38.9560170889,23.151901877400007,2018-10-25T22:54:58.900000Z,6.84,37.27,20.6,16.0,114.0,83.0,63.0,1.1538818464657659,-0.9403146055297135,-0.6375633352813089,0.20190282745845278,-0.0005996997658961334,-0.0009649034949940072,0.00020190282745845278,-5.103982856149144e-10,4.989123983601792e-09,2.3346268544471265e-09,6.782275435575886e-09,2.7728267924677186e-10,-1.2524560569958577e-09
ITEA,38.4309813455,22.430211599199996,2018-10-25T22:54:58.900000Z,6.84,37.27,20.6,16.0,114.0,83.0,63.0,2.439298615826647,-2.0033388964198107,-1.3539029793779704,0.32211446055199766,-0.0012794591960605395,-0.0020516832545725006,0.00032211446055199766,-1.022698920350569e-09,1.509227431547892e-08,8.887364187597882e-09,1.9706885876057073e-08,9.353991528865283e-10,-2.2147270334095066e-09
JGC1,38.0564578466,23.803418974199985,2018-10-25T22:54:58.900000Z,6.84,37.27,20.6,16.0,114.0,83.0,63.0,1.1161114033122284,-1.0064073387478558,-0.4327344748980687,0.213517697984833,-0.0007433898851880727,-0.0008046653564376394,0.000213517697984833,4.113982244072008e-09,3.40931255905696e-09,6.020106025466983e-09,1.8425511772065034e-09,-1.1590275060172537e-09,-3.7299081267124543e-10
JPA1,37.0407410126,22.092233399500003,2018-10-25T22:54:58.900000Z,6.84,37.27,20.6,16.0,114.0,83.0,63.0,2.507131995920219,-2.368719048423909,-0.8212277539685413,0.021584501671681466,-0.001829909107269323,-0.0017136737184736406,2.1584501671681466e-05,4.2423389802428236e-08,-5.061695709961487e-08,3.009083499656368e-08,-2.0629655728896745e-08,3.220486646621049e-10,9.278804795483307e-09
KAL3,38.0305509928,22.1022587974,2018-10-25T22:54:58.900000Z,6.84,37.27,20.6,16.0,114.0,83.0,63.0,4.481473445795941,-3.8204125522858496,-2.302821802500927,0.4301905643284698,-0.002553478523910524,-0.003657634174116464,0.0004301905643284698,6.0619869120850185e-09,3.687256680123883e-08,3.299655354461617e-08,3.847076680903788e-08,1.4731537323008805e-09,-1.7286158901033896e-09
KALM,37.033726265,22.111371255200027,2018-10-25T22:54:58.900000Z,6.84,37.27,20.6,16.0,114.0,83.0,63.0,2.413769795704828,-2.2763686853659357,-0.8024580513302126,0.022165531746526357,-0.001753177178428711,-0.0016589644652300617,2.2165531746526357e-05,4.0155377153768054e-08,-4.888873982469117e-08,2.8606276592000677e-08,-1.9587885379220974e-08,1.9412254213761533e-10,9.082661193056216e-09
KARP,38.911862597,21.80291337609998,2018-10-25T22:54:58.900000Z,6.84,37.27,20.6,16.0,114.0,83.0,63.0,1.6270800166255055,-1.2018326034377103,-1.092649525936055,0.09541900904906642,-0.0006535081154797062,-0.0014870143698755278,9.541900904906642e-05,-5.493652889871861e-09,6.662984361560538e-09,-8.982480178500403e-09,1.7062349959024857e-08,3.6887355553112192e-09,-2.567850152835196e-10
KIPO,38.203185999,20.348351809699977,2018-10-25T22:54:58.900000Z,6.84,37.27,20.6,16.0,114.0,83.0,63.0,2.201999505741629,-1.2526222133463594,0.592621042731661,-1.7112976694979993,-0.0013853680266815438,3.189890759225378e-05,-0.0017112976694979992,1.1277101223158716e-08,2.141018887880547e-08,-6.973990930995284e-08,-2.5070602165268846e-08,-1.4594045900817616e-08,3.228573154974329e-08
KOPA,37.2895154126,21.81823142090002,2018-10-25T22:54:58.900000Z,6.84,37.27,20.6,16.0,114.0,83.0,63.0,6.734340887298373,-6.502105173961218,-1.7505071207205634,0.09849016901186669,-0.0052279732568245585,-0.004243812260088076,9.849016901186669e-05,1.274575060623535e-07,-2.370875675136553e-08,1.0887494906800955e-07,-3.983292395296852e-08,7.128539087063478e-09,1.251162726870132e-08
KOR1,36.7975013801,21.95629645909997,2018-10-25T22:54:58.900000Z,6.84,37.27,20.6,16.0,114.0,83.0,63.0,1.3154173998773577,-0.44403098839716515,-1.210875014310897,-0.25872981459570954,8.68647460023908e-05,-0.0012867930427389318,-0.00025872981459570954,-1.6917101472426155e-09,-7.128011919175645e-08,1.769594531784648e-08,-4.737206155544899e-09,3.161587173625009e-09,9.051001169008242e-09
KORI,37.94156644,22.93094050510001,2018-10-25T22:54:58.900000Z,6.84,37.27,20.6,16.0,114.0,83.0,63.0,2.146116021348846,-1.93309722832756,-0.8704012568810993,0.33369257549772935,-0.001411948106767369,-0.0015814125919392241,0.00033369257549772935,9.354393198706745e-09,1.0142405832398493e-08,1.5495108731420774e-08,6.112449646200201e-09,-1.8303439268601221e-09,-8.032294602028412e-10
KOUN,38.2094545658,22.0458210063,2018-10-25T22:54:58.900000Z,6.84,37.27,20.6,16.0,114.0,83.0,63.0,3.930146460111465,-3.213412132525081,-2.232141364883902,0.3709158821640357,-0.0020277043715783982,-0.0033461750683081437,0.0003709158821640357,-3.123216072735444e-09,3.0221325226252033e-08,1.7982290308842084e-08,4.0424406161806145e-08,2.8404491815317918e-09,-2.0567016486429323e-09
KRIN,38.1894059587,21.959839376899996,2018-10-25T22:54:58.900000Z,6.84,37.27,20.6,16.0,114.0,83.0,63.0,4.289159449202221,-3.4802542035114183,-2.4807628483675512,0.36129648459556907,-0.002170353265847247,-0.0036818365434013733,0.00036129648459556907,-5.05897955157541e-09,3.4084952946455704e-08,1.870937721828341e-08,4.747122771261011e-08,3.784148415947556e-09,-1.6962903920604862e-09
KRYO,37.9723055725,22.617881578499976,2018-10-25T22:54:58.900000Z,6.84,37.27,20.6,16.0,114.0,83.0,63.0,2.820563439762822,-2.508871573431975,-1.2288454177709045,0.38869073178440794,-0.0017921517696342093,-0.002143056151235556,0.00038869073178440794,1.0654354312172482e-08,1.6841133303309255e-08,2.166911133746138e-08,1.222025934827504e-08,-1.5570593865770964e-09,-1.3147568358533007e-09
KTCH,38.4115829342,21.246931431699977,2018-10-25T22:54:58.900000Z,6.84,37.27,20.6,16.0,114.0,83.0,63.0,3.5132373447619423,-2.4134058459343066,-2.545986974207951,-0.1904184618242155,-0.0011692097527973289,-0.0033074954276597346,-0.0001904184618242155,-1.9157594801471265e-08,1.5464500944867753e-08,-4.133294723198571e-08,5.569215708895624e-08,1.059513034695583e-08,7.747861761524796e-09
KTIM,39.1344654973,22.11999339549999,2018-10-25T22:54:58.900000Z,6.84,37.27,20.6,16.0,114.0,83.0,63.0,1.2378920357867187,-0.9321749020427398,-0.8057857182777028,0.11889499773111434,-0.0005238415693988863,-0.0011152715731822527,0.00011889499773111434,-3.3483585320038906e-09,4.7774477162372535e-09,-4.625058390120799e-09,1.0960753957521512e-08,2.282036497910284e-09,-7.393729358475086e-10
LAM8,38.3203925224,21.973148346000016,2018-10-25T22:54:58.900000Z,6.84,37.27,20.6,16.0,114.0,83.0,63.0,3.6060794348048497,-2.861575227349938,-2.1712428996896955,0.3176481998795194,-0.0017310550023261762,-0.003147436590331454,0.0003176481998795194,-7.110681774890302e-09,2.5794317224903723e-08,9.038552452952267e-09,4.0561486824387446e-08,3.798952000859875e-09,-1.8275025802618809e-09
LAMJ,38.898199745,22.43222064589997,2018-10-25T22:54:58.900000Z,6.84,37.27,20.6,16.0,114.0,83.0,63.0,1.5466626509056045,-1.2054881378536593,-0.9473718706201548,0.20359332984687395,-0.000715937358177765,-0.0013557834675617109,0.00020359332984687395,-2.9557420580394195e-09,7.284738054269723e-09,-1.8459848722880521e-10,1.2947849579239318e-08,1.593214848257719e-09,-1.4868720450144386e-09
LEPE,38.7097747089,21.29000055490002,2018-10-25T22:54:58.900000Z,6.84,37.27,20.6,16.0,114.0,83.0,63.0,1.9333186041364612,-1.3786718352624479,-1.3509014155314418,-0.10977322655991717,-0.0007100182858041926,-0.0017948662060595089,-0.00010977322655991717,-7.960659585970479e-09,6.927187723769237e-09,-2.5333986866751116e-08,2.374646933776344e-08,6.479428163804875e-09,3.5125981845571475e-09
LIDO,38.52898974,22.201019908399985,2018-10-25T22:54:58.900000Z,6.84,37.27,20.6,16.0,114.0,83.0,63.0,2.496022156899949,-1.976290424609287,-1.4981259460710923,0.28288056674453943,-0.0011960884221746682,-0.0021724358860581994,0.00028288056674453943,-4.422630963186146e-09,1.505221895525e-08,4.021922229203876e-09,2.4150716778325212e-08,2.2795200808785675e-09,-2.0448600931395554e-09
LYGO,37.6124995546,23.037670434099997,2018-10-25T22:54:58.900000Z,6.84,37.27,20.6,16.0,114.0,83.0,63.0,1.889038383446406,-1.7570866134248206,-0.6326320431388238,0.2844105220470988,-0.0013478638608503957,-0.001292609640106468,0.0002844105220470988,1.315735904747725e-08,4.234213302568654e-09,1.4868364048091905e-08,1.7012720228720904e-10,-2.363867287575072e-09,6.182818752068243e-10
MEN1,37.5610401117,23.38605018049998,2018-10-25T22:54:58.900000Z,6.84,37.27,20.6,16.0,114.0,83.0,63.0,1.3814538617953784,-1.287016046908527,-0.44852382964405174,0.22545696154864514,-0.0009933165867574978,-0.0009332234937200479,0.00022545696154864514,9.106308485832457e-09,1.6132459028065112e-09,9.556717911986494e-09,-5.850382936892792e-10,-1.8835430852793586e-09,6.426264208881116e-10
MESA,38.4846994582,21.586366569400013,2018-10-25T22:54:58.900000Z,6.84,37.27,20.6,16.0,114.0,83.0,63.0,3.1943389424853015,-2.32615020853147,-2.186985089267989,0.09961278104037019,-0.001235516983132623,-0.002944040821341032,9.961278104037019e-05,-1.4032127044748738e-08,1.751231233246677e-08,-1.4958435520824317e-08,4.416576157620932e-08,7.175780176644466e-09,1.1426242499517216e-09
MESO,38.3663742759,21.474947860600025,2018-10-25T22:54:58.900000Z,6.84,37.27,20.6,16.0,114.0,83.0,63.0,4.014053478444981,-2.8877422957572083,-2.7878681548425015,0.036890545214246506,-0.0015041557224928503,-0.0037213948968071175,3.6890545214246506e-05,-1.999873608617957e-08,2.358942155149045e-08,-2.0945884838986648e-08,6.184380242520567e-08,9.540681715870584e-09,3.4671041955329276e-09
MET0,38.0652631395,23.7623150128,2018-10-25T22:54:58.900000Z,6.84,37.27,20.6,16.0,114.0,83.0,63.0,1.1459422890061453,-1.0322566857098479,-0.44729668770450814,0.21807232219733796,-0.0007610814531355814,-0.0008284824764092091,0.00021807232219733796,4.186568903273504e-09,3.6099044872996557e-09,6.223102332637159e-09,1.999311399713981e-09,-1.1733492658606155e-09,-4.066727376209996e-10
MET4,36.8255146835,21.70457026790001,2018-10-25T22:54:58.900000Z,6.84,37.27,20.6,16.0,114.0,83.0,63.0,2.0519295967048925,0.17270140402250786,-2.004448893561125,-0.403452510196356,0.0009730533973573152,-0.0017609111924629106,-0.000403452510196356,-2.798705539709447e-08,-1.2434487771945186e-07,2.882953371609387e-08,2.7673644717843197e-09,4.2322823257600025e-09,8.630306400885914e-09
MTNA,37.6126904064,23.32955878849998,2018-10-25T22:54:58.900000Z,6.84,37.27,20.6,16.0,114.0,83.0,63.0,1.473839384672568,-1.3693232384009137,-0.48916197699429653,0.24057630982762812,-0.0010519789240426292,-0.0010038256394074851,0.00024057630982762812,9.44020956379466e-09,2.472063985085144e-09,1.0351970207500926e-08,-1.4072825591088175e-10,-1.950005048862213e-09,5.04495733387845e-10
NAFP,38.3701005043,21.78122127590001,2018-10-25T22:54:58.900000Z,6.84,37.27,20.6,16.0,114.0,83.0,63.0,3.6957343330625623,-2.821803730818695,-2.3749320896500716,0.23574039718601836,-0.001611874074971098,-0.0033173393996014378,0.00023574039718601836,-1.2253022047888488e-08,2.4877748452570417e-08,-5.641740996489795e-10,4.7771554674598105e-08,5.844811354198301e-09,-6.529040114612774e-10
NOA1,38.0470629094,23.864033881199987,2018-10-25T22:54:58.900000Z,6.84,37.27,20.6,16.0,114.0,83.0,63.0,1.073772132424153,-0.9693511914734713,-0.4129005149564393,0.20702179766483864,-0.0007176046084533816,-0.0007714740394781927,0.00020702179766483864,3.987722011754587e-09,3.1432694731407592e-09,5.7247207400799996e-09,1.646540226496809e-09,-1.1331476689725843e-09,-3.312508897069817e-10
PAT0,38.2836555506,21.78675058760001,2018-10-25T22:54:58.900000Z,6.84,37.27,20.6,16.0,114.0,83.0,63.0,4.208796115213095,-3.2623818540699667,-2.6455929672756846,0.2677073573312677,-0.0019042745214266077,-0.0037437996817817343,0.0002677073573312677,-1.2471361481247346e-08,3.101086051795756e-08,5.308617731065771e-09,5.475311763566517e-08,6.065005160680072e-09,-6.040055894360285e-10
PATR,38.2408574038,21.73295605430002,2018-10-25T22:54:58.900000Z,6.84,37.27,20.6,16.0,114.0,83.0,63.0,4.628480230067585,-3.580021497382187,-2.922589428840696,0.25445303856803936,-0.0020817881638208746,-0.004126044223256131,0.00025445303856803936,-1.4534918875613226e-08,3.5438021794777645e-08,6.196585271448691e-09,6.297117767466626e-08,7.02771014371548e-09,1.0235839472625867e-10
PONT,38.618999278,20.585179730499988,2018-10-25T22:54:58.900000Z,6.84,37.27,20.6,16.0,114.0,83.0,63.0,1.1050682152218139,-0.8663430624446524,-0.14945047841942416,-0.6695446310349684,-0.0007306567835581035,-0.0004889032746733246,-0.0006695446310349684,2.0292004518062578e-09,7.555500138064125e-09,-3.522965557744515e-08,-1.559810619749888e-09,2.4504805479410802e-09,1.1842842516423645e-08
PSAR,38.3217449492,22.184301988100003,2018-10-25T22:54:58.900000Z,6.84,37.27,20.6,16.0,114.0,83.0,63.0,3.1596073127970286,-2.5748535354237188,-1.7977947140286064,0.3481117757376806,-0.0016210167644579165,-0.002689654478184811,0.0003481117757376806,-2.6495842733948262e-09,2.193255056946623e-08,1.2043154844742359e-08,2.9931250166235045e-08,1.972304754020104e-09,-2.3036053298422415e-09
PSAT,38.3286830797,21.8714067075,2018-10-25T22:54:58.900000Z,6.84,37.27,20.6,16.0,114.0,83.0,63.0,3.770648552982241,-2.9420980715227434,-2.3410123673398067,0.28550051420496436,-0.0017355648174879335,-0.003335280307679378,0.00028550051420496436,-9.8894432440833e-09,2.677159704413316e-08,5.5579267903141905e-09,4.590449660411103e-08,4.902990096406158e-09,-1.3029363390390997e-09
PVOG,38.6140002258,21.523398339899984,2018-10-25T22:54:58.900000Z,6.84,37.27,20.6,16.0,114.0,83.0,63.0,2.525834920773517,-1.814699475721865,-1.7564820102765244,0.03845526477203043,-0.0009433848665492128,-0.002342730934865589,3.845526477203043e-05,-1.1031037839292009e-08,1.1570815363003693e-08,-1.8416178464606394e-08,3.3161140176113575e-08,6.548915545405465e-09,1.4961493274499368e-09
PYL1,36.9141727594,21.69530667409998,2018-10-25T22:54:58.900000Z,6.84,37.27,20.6,16.0,114.0,83.0,63.0,1.9878445100229192,-0.9298666593886484,-1.7219058562097957,-0.3491618738294122,-0.00014911325525046593,-0.0019512501169764995,-0.0003491618738294122,5.9059790879162925e-09,-1.4934475890006604e-07,3.337038593287057e-08,-1.3769181771147044e-08,5.601803485931183e-09,9.427259073175132e-09
PYLO,36.8955119677,21.741968322200023,2018-10-25T22:54:58.900000Z,6.84,37.27,20.6,16.0,114.0,83.0,63.0,1.8357843337507949,-0.8299926667356182,-1.6046277576758579,-0.32616874851232325,-0.00010557512302966643,-0.0018034888302775887,-0.00032616874851232325,4.19402931247215e-09,-1.2960219725246052e-07,2.9585690635688762e-08,-1.1538156446759684e-08,4.934577453084696e-09,9.873435610092621e-09
PYRG,37.6787726789,21.462209398500026,2018-10-25T22:54:58.900000Z,6.84,37.27,20.6,16.0,114.0,83.0,63.0,14.931953174024436,-12.792187165941822,-7.691692387933171,-0.40129952925796464,-0.008557751337320507,-0.012229761908053027,-0.00040129952925796464,3.6823913578159743e-08,2.0788600894455298e-07,2.1049520470503338e-07,2.03007889858633e-07,3.8076570060525725e-08,3.721675109577807e-08
RETS,38.4289348648,21.4293220065,2018-10-25T22:54:58.900000Z,6.84,37.27,20.6,16.0,114.0,83.0,63.0,3.541535185123638,-2.5146182855112578,-2.4938151090347773,-0.007248971720608122,-0.0012828921265333193,-0.003301000865125081,-7.248971720608122e-06,-1.785559385032349e-08,1.8521922241175867e-08,-2.5255135594559726e-08,5.3512376259373556e-08,9.153176384869834e-09,3.717302135776022e-09
RGNI,38.5817191052,21.238741847100016,2018-10-25T22:54:58.900000Z,6.84,37.27,20.6,16.0,114.0,83.0,63.0,2.419672951799912,-1.691107959613773,-1.723139700893508,-0.1605011956580804,-0.0008440399373963459,-0.002262002021206966,-0.0001605011956580804,-1.114424078425833e-08,9.01463023441201e-09,-3.28880685115637e-08,3.298347629024839e-08,7.984899413135111e-09,5.255540034543906e-09
RLSO,38.0558343494,21.46474375280002,2018-10-25T22:54:58.900000Z,6.84,37.27,20.6,16.0,114.0,83.0,63.0,7.546763094513118,-5.705336081533997,-4.939909979159268,0.007924598044911635,-0.0032028414595899335,-0.006833401568046682,7.924598044911635e-06,-3.450337732332234e-08,6.836059075007679e-08,7.290219377899522e-09,1.316005181679646e-07,1.562679397973072e-08,1.0221189089305417e-08
ROD3,38.3080478271,21.89228311609997,2018-10-25T22:54:58.900000Z,6.84,37.27,20.6,16.0,114.0,83.0,63.0,3.8380844321993948,-3.0152560468633065,-2.355677260944945,0.29984616524567076,-0.0017964332039546171,-0.003378433383923407,0.00029984616524567076,-9.195247239807647e-09,2.7797254243522398e-08,7.619240750535838e-09,4.597861652081192e-08,4.681303419661813e-09,-1.4287304493047415e-09
SISS,38.1009474907,20.6594089436,2018-10-25T22:54:58.900000Z,6.84,37.27,20.6,16.0,114.0,83.0,63.0,4.271575805706027,-2.519780891792218,-2.8282361778422667,-1.9743718605156613,-0.0011515870991503085,-0.0036086095346223868,-0.0019743718605156613,-7.726963902763187e-09,7.976312460506017e-09,-1.7696548450035952e-07,5.376954542507536e-08,-2.3662714939294356e-09,5.938390674639847e-08
SPET,37.267393172,23.155387420299974,2018-10-25T22:54:58.900000Z,6.84,37.27,20.6,16.0,114.0,83.0,63.0,1.3798128472518112,-1.3038579901215792,-0.41100104091474504,0.1868581799233382,-0.001023964360604257,-0.0009057949559636569,0.0001868581799233382,1.2096802843458973e-08,-3.027319445358658e-09,1.0400846198586172e-08,-3.1892026597080983e-09,-1.978734662863932e-09,1.905552762106519e-09
SPR2,37.0460153941,22.37209692469997,2018-10-25T22:54:58.900000Z,6.84,37.27,20.6,16.0,114.0,83.0,63.0,1.9842130534773088,-1.880920383810871,-0.6248668992801747,0.09370864174926274,-0.0014641500078353964,-0.0013358835602726993,9.370864174926274e-05,2.806591815657563e-08,-2.6581970242104585e-08,2.042803337967695e-08,-1.2375712100549817e-08,-1.3028782013654363e-09,6.532495196322111e-09
STRF,37.2453963528,21.015625963899996,2018-10-25T22:54:58.900000Z,6.84,37.27,20.6,16.0,114.0,83.0,63.0,51.960512999459695,-48.303409717681156,-12.324892385787795,-14.655120214163944,-0.03911437518097127,-0.03090611617265493,-0.014655120214163944,2.6747868636016836e-06,-1.4377394324194775e-06,2.5902953845062383e-06,-1.6453460314321246e-06,1.3625917640412442e-06,-3.911570802764469e-07
THI1,38.3165538407,23.318384063700023,2018-10-25T22:54:58.900000Z,6.84,37.27,20.6,16.0,114.0,83.0,63.0,1.4692717309049372,-1.2840670605782094,-0.6637718949141213,0.2633212385975414,-0.0009030732781942774,-0.0011286629252134084,0.0002633212385975414,3.292470580093781e-09,6.6010005195384255e-09,7.51945101143354e-09,5.494426523781345e-09,-9.075808780590849e-10,-1.0964457013199058e-09
THIV,38.3162066042,23.31695002390001,2018-10-25T22:54:58.900000Z,6.84,37.27,20.6,16.0,114.0,83.0,63.0,1.4707947796483387,-1.2853885864799863,-0.6645132358532012,0.2635064040278634,-0.0009039790216540666,-0.0011298776868698956,0.0002635064040278634,3.296217495223502e-09,6.611730318984462e-09,7.530501423175893e-09,5.504050293916929e-09,-9.080089377595725e-10,-1.0976887221888744e-09
TRIP,37.5081416643,22.36939511819997,2018-10-25T22:54:58.900000Z,6.84,37.27,20.6,16.0,114.0,83.0,63.0,3.673339022913794,-3.4556238057850632,-1.1886390492865115,0.3731231709021565,-0.002673406374360976,-0.002491404630750149,0.0003731231709021565,3.653604617291922e-08,1.088526117720435e-08,4.067269095590688e-08,-1.315459403924449e-09,-2.9368360296810494e-09,2.5289612093723036e-09
TRIZ,38.3653937869,22.0727376854,2018-10-25T22:54:58.900000Z,6.84,37.27,20.6,16.0,114.0,83.0,63.0,3.2210494056772276,-2.571623388153284,-1.9128459417988484,0.3208314608331292,-0.0015712703279264773,-0.002793445185453103,0.0003208314608331292,-5.344322622304679e-09,2.2075270404278613e-08,8.491374332834661e-09,3.3691814976745067e-08,2.934412596470441e-09,-2.0988964756620232e-09
VALI,38.2337388126,22.134852875499973,2018-10-25T22:54:58.900000Z,6.84,37.27,20.6,16.0,114.0,83.0,63.0,3.5846277475240913,-2.949226532228755,-2.003122872444886,0.3729848627032212,-0.0018795090292700323,-0.0030295023006108313,0.0003729848627032212,-1.710338648074717e-09,2.6540085465716438e-08,1.677505035784274e-08,3.430782413069961e-08,2.0758501723738088e-09,-2.258296575305103e-09
VASS,37.430444814,21.899260635400022,2018-10-25T22:54:58.900000Z,6.84,37.27,20.6,16.0,114.0,83.0,63.0,6.96873408555365,-6.618302784040096,-2.1633274991863267,0.28519667808132865,-0.005166215880770597,-0.004668204267514686,0.00028519667808132865,9.735118815383058e-08,2.5386990231492018e-08,1.0689773114074629e-07,-9.167441222502642e-09,3.352108035794617e-09,8.910015858602193e-09
VLSM,38.1768273025,20.588645609100013,2018-10-25T22:54:58.900000Z,6.84,37.27,20.6,16.0,114.0,83.0,63.0,2.8754460074878176,-1.8359656013721806,-1.4371438222464132,-1.6828659146630454,-0.0010926989816439914,-0.0020596506962970995,-0.0016828659146630454,3.5214438839161114e-09,1.0580920235918616e-08,-1.2773621296410214e-07,1.651699205899906e-08,-3.601872294191927e-09,4.352925799467918e-08
VLY1,37.1641089089,21.9835142279,2018-10-25T22:54:58.900000Z,6.84,37.27,20.6,16.0,114.0,83.0,63.0,3.9775284546233505,-3.8358406668552494,-1.047951353417624,0.0941113527055254,-0.0030779746018505527,-0.0025175281549554285,9.41113527055254e-05,7.355491603248833e-08,-4.681958121410294e-08,5.347625191798898e-08,-3.05083567664125e-08,1.1828611272138303e-09,1.0204521247974732e-08
XILI,38.385233707,21.9117921189,2018-10-25T22:54:58.900000Z,6.84,37.27,20.6,16.0,114.0,83.0,63.0,3.415017835287613,-2.6573004711747648,-2.126925304332128,0.27801037933601613,-0.0015624663166762254,-0.0030238644238070878,0.00027801037933601613,-8.952771237560294e-09,2.3068585748184033e-08,3.640384880160738e-09,4.027654770581924e-08,4.410528688084337e-09,-1.5076383043832216e-09
ZAK2,37.7791591052,20.885047301399997,2018-10-25T22:54:58.900000Z,6.84,37.27,20.6,16.0,114.0,83.0,63.0,21.0985211098975,-12.7078687104363,-16.070207967876726,-5.040444596689452,-0.005072873294353464,-0.019849621352356572,-0.005040444596689453,-2.4471983146581423e-07,1.4865506310762405e-07,-3.5619602957815755e-07,6.407187359712895e-07,3.767822466301257e-08,2.574733187921153e-07
ZAKY,37.7811732052,20.87782337089999,2018-10-25T22:54:58.900000Z,6.84,37.27,20.6,16.0,114.0,83.0,63.0,20.875699906242605,-12.481519734559624,-15.943827733414619,-5.079455571072075,-0.0049174966879155235,-0.019642102840616182,-0.005079455571072075,-2.4202760717718876e-07,1.4166824681833072e-07,-3.685558145801085e-07,6.32968879896175e-07,3.491835831118696e-08,2.585279440610733e-07
ZNTE,37.7175841304,20.7307785676,2018-10-25T22:54:58.900000Z,6.84,37.27,20.6,16.0,114.0,83.0,63.0,25.088632977079943,-12.865661825828338,-19.382420402410943,-9.39340352514735,-0.003869826311390767,-0.022939658218727677,-0.00939340352514735,-3.015693336943227e-07,9.248703577578749e-08,-8.016560417059512e-07,7.671197400101669e-07,-5.4905685832790906e-08,4.937117405992102e-07
