Station_ID,Station Latitude (°N),Station Longitude (°E),Event Date,Event Mag,Event Latitude (°N),Event Longitude (°E),Event Depth (km),Strike (°),Dip (°),Rake (°),Total Displacement [mm],dE [mm],dN [mm],dH [mm],ux [m],uy [m],uz [m],uxx,uxy,uyx,uyy,uzx,uzy
AFY0,40.1010700264,23.434337137499995,2014-05-24T09:25:18.800000Z,6.86,40.3,25.67,12.0,343.0,87.0,-5.0,2.1992689162474073,1.7121835992335759,-1.294135941929899,0.48002422052727256,-0.001738182393836496,-0.001259000587543968,0.00048002422052727256,-5.21494968608439e-09,1.8655985517150887e-08,-3.100082958547284e-08,1.895571627872043e-08,1.123398525893049e-08,-6.432292648348606e-09
AFYT,40.0971361938,23.4353250602,2014-05-24T09:25:18.800000Z,6.86,40.3,25.67,12.0,343.0,87.0,-5.0,2.1869809308321466,1.6970331692481606,-1.2952366272828322,0.47468525744958495,-0.0017348054274322067,-0.00124419035004103,0.00047468525744958495,-5.174843696566297e-09,1.859489167135188e-08,-3.117011797226699e-08,1.8754557186287936e-08,1.1283140813148487e-08,-6.367223537070351e-09
ALE3,40.8491656686,25.853456076600025,2014-05-24T09:25:18.800000Z,6.86,40.3,25.67,12.0,343.0,87.0,-5.0,36.44427924022728,15.031983486982456,32.86190058149913,-4.724452556478439,0.027031065178618974,-0.023983047193601115,-0.0047244525564784385,-7.265650352475296e-07,2.9070930329367035e-07,7.76688206273416e-07,-9.044641259009824e-08,8.419919800869257e-08,2.1031881477188205e-08
ANAV,37.7333572797,23.904107016900014,2014-05-24T09:25:18.800000Z,6.86,40.3,25.67,12.0,343.0,87.0,-5.0,1.669559159827973,-0.7539020825805763,-1.3972791367398025,-0.516401444689913,-0.0011158050467940939,0.0011294850302843717,-0.000516401444689913,-4.038026398106188e-09,5.739389964088511e-09,5.458628650406183e-09,-4.496526053100037e-09,-1.9407002650857976e-09,2.1332370118558633e-09
ANDR,37.8863734555,24.73709084040001,2014-05-24T09:25:18.800000Z,6.86,40.3,25.67,12.0,343.0,87.0,-5.0,2.0873824424384466,-0.8554514996348312,-1.7996163753967713,-0.6218915453490258,-0.0014708718854450353,0.0013442292451182059,-0.0006218915453490258,-1.032115322742692e-08,3.711797446996735e-09,1.0337483586494745e-08,-1.875781090076828e-09,-4.263260582234341e-09,7.438193424766246e-10
ARKI,38.7550567243,23.03360943040002,2014-05-24T09:25:18.800000Z,6.86,40.3,25.67,12.0,343.0,87.0,-5.0,1.4727782306837374,-0.70152898522455,-1.230267320435646,-0.4041968826374448,-0.0009714032643159953,0.001030570858756602,-0.0004041968826374448,1.756666717969915e-09,7.707356816446824e-09,-5.29765717379181e-09,-9.59334785002633e-09,2.5445457823673927e-09,3.5369013053571695e-09
ATAL,38.6530574661,22.999356368199983,2014-05-24T09:25:18.800000Z,6.86,40.3,25.67,12.0,343.0,87.0,-5.0,1.4414219957606962,-0.6973420943212263,-1.194944599215501,-0.4043745518156894,-0.0009388481064505072,0.0010162395508544753,-0.0004043745518156894,1.4606454388575621e-09,7.260499681873762e-09,-4.077290456341075e-09,-8.993522113825632e-09,2.0732802737180266e-09,3.382963729094458e-09
AUT1,40.5668190085,23.003720411199996,2014-05-24T09:25:18.800000Z,6.86,40.3,25.67,12.0,343.0,87.0,-5.0,2.584677795258079,2.2422241595280035,-1.0545479651961402,0.7354717620886506,-0.0016640321343999176,-0.0018359296413955617,0.0007354717620886506,-1.8214211279892116e-09,1.6552542037035618e-08,-4.1137066617945694e-09,1.954409281063426e-08,2.4935228454665374e-09,-7.280103064242007e-09
AYD1,37.8407265492,27.83788451110001,2014-05-24T09:25:18.800000Z,6.86,40.3,25.67,12.0,343.0,87.0,-5.0,1.0503421563661837,-0.8834226047180743,0.48458828071011356,0.29657603596972176,0.0007217018504590555,0.0007031413366972716,0.0002965760359697218,5.9446898193729025e-09,-3.7950012537734985e-09,4.7896110494731665e-09,-1.1436632181245715e-09,2.295058776002869e-09,-1.7704880190882501e-09
AYVL,39.3114429293,26.6861782332,2014-05-24T09:25:18.800000Z,6.86,40.3,25.67,12.0,343.0,87.0,-5.0,6.556353703735525,-5.402823757176928,3.4150788930616076,1.4603100669160052,0.004845488979626111,0.004168273616891316,0.0014603100669160051,8.901684064505414e-08,-3.0778218461661924e-08,6.979604911242956e-08,-1.6402816234023675e-08,2.2180648936988044e-08,-1.3947415502176383e-08
BAL1,39.6294995568,27.892661172399983,2014-05-24T09:25:18.800000Z,6.86,40.3,25.67,12.0,343.0,87.0,-5.0,4.029019337842194,-3.4853886710474122,1.6947766290642186,1.1012696372907187,0.0026397519780445577,0.0028375890303385665,0.0011012696372907187,7.906098046826737e-09,2.6378280775334053e-08,1.4279283013199883e-08,2.4306354661665722e-08,2.966990113765888e-09,8.893573972748227e-09
BALK,39.6393659686,27.89363153369999,2014-05-24T09:25:18.800000Z,6.86,40.3,25.67,12.0,343.0,87.0,-5.0,4.03149856566498,-3.490013611662625,1.6913820476632462,1.1009143673378388,0.0026378579254782153,0.0028430043625959633,0.0011009143673378387,7.612697560292379e-09,2.6554637515406388e-08,1.3950422475129935e-08,2.4656217654903308e-08,2.826200139217646e-09,8.988173441683325e-09
BAND,40.3312259578,27.99671177990001,2014-05-24T09:25:18.800000Z,6.86,40.3,25.67,12.0,343.0,87.0,-5.0,2.554922257918575,-2.1685499437067475,1.2137862435833655,0.5930782752259569,0.0017947722012792156,0.0017189178715046605,0.000593078275225957,-5.993127206709924e-09,1.976623780943103e-08,-2.265812613169226e-08,2.422622052640984e-08,-8.823188910006915e-09,7.350984369971788e-09
BEL2,39.2949447484,23.133333828800005,2014-05-24T09:25:18.800000Z,6.86,40.3,25.67,12.0,343.0,87.0,-5.0,1.3467147951021574,-0.41443999180482743,-1.2523400142386938,-0.2711544233024582,-0.0010764481847900242,0.0007624797200797007,-0.0002711544233024582,2.4993246530631026e-09,9.039209234580801e-09,-1.5636380830369345e-08,-8.973814172754366e-09,6.1385093220973065e-09,2.9182590978098887e-09
BERO,41.7053652707,22.8529759507,2014-05-24T09:25:18.800000Z,6.86,40.3,25.67,12.0,343.0,87.0,-5.0,2.0875804942005582,1.7262894786898575,-0.9829262991454981,0.6416952906009854,-0.0014446952923634626,-0.0013634790009420805,0.0006416952906009854,8.393899125696189e-09,5.851395290849271e-09,9.320902442138092e-09,3.7167606824029576e-09,-3.744561134463106e-09,-1.783784265850345e-09
BITO,41.0241015206,21.335470869900007,2014-05-24T09:25:18.800000Z,6.86,40.3,25.67,12.0,343.0,87.0,-5.0,1.0872814342771884,0.9312154843566808,-0.4420680997422407,0.34582428227135364,-0.0006950128848686177,-0.000761277592591536,0.00034582428227135364,3.0607915097995506e-10,4.090155557361204e-09,5.56964174934404e-10,4.401372625386708e-09,6.424299763507192e-12,-1.9735442096274264e-09
BNDR,40.3486525482,27.97494641869997,2014-05-24T09:25:18.800000Z,6.86,40.3,25.67,12.0,343.0,87.0,-5.0,2.5433525273925186,-2.1482519962781925,1.2313013440727067,0.5809926326257666,0.001805587429686284,0.0016943859280539875,0.0005809926326257667,-6.129183690328031e-09,1.995036760765579e-08,-2.413070833399268e-08,2.4229010464680132e-08,-9.27393091783862e-09,7.287558563877711e-09
CANA,40.1112056146,26.414336083900025,2014-05-24T09:25:18.800000Z,6.86,40.3,25.67,12.0,343.0,87.0,-5.0,31.375720696797135,-28.3040078795914,12.983222037621866,3.841215005341684,0.020691208016543783,0.023271330588135186,0.003841215005341684,2.7506544000478332e-08,6.186370337469945e-07,1.2728137572650315e-07,6.167881773236366e-07,-3.793146704730917e-08,4.8174401565168405e-08
CESM,38.3038153588,26.3725707982,2014-05-24T09:25:18.800000Z,6.86,40.3,25.67,12.0,343.0,87.0,-5.0,1.1257436108095322,-1.0358302053680049,-0.4385659694708311,-0.044881547966517735,-0.0001165552794617497,0.0011187936318911573,-4.4881547966517735e-05,-1.560294273063406e-09,-2.2877969222672516e-08,9.348786916234233e-09,5.408877373409283e-10,-5.546694316080687e-10,-8.293451640786408e-09
DEI1,39.0508993781,28.662686939600007,2014-05-24T09:25:18.800000Z,6.86,40.3,25.67,12.0,343.0,87.0,-5.0,2.0444107078044307,-1.721996174026988,0.9116147597241098,0.6191145682949012,0.0013752444872565661,0.0013802227696212144,0.0006191145682949012,5.508518217214133e-09,7.891650157641596e-09,7.413889620735321e-09,6.102900452692318e-09,2.525461068809538e-09,2.7931778744758725e-09
DEIR,39.0348514814,28.648405101399987,2014-05-24T09:25:18.800000Z,6.86,40.3,25.67,12.0,343.0,87.0,-5.0,2.047891134145754,-1.7230657450633615,0.9167099102927556,0.6201173081547342,0.0013804297162849366,0.0013797559276325644,0.0006201173081547343,5.682118918209459e-09,7.800392841036453e-09,7.552440657890062e-09,5.958016071339058e-09,2.596753934327816e-09,2.736547039858569e-09
DION,38.0785341305,23.932647686700022,2014-05-24T09:25:18.800000Z,6.86,40.3,25.67,12.0,343.0,87.0,-5.0,2.075808686365629,-0.9657442482663946,-1.727231025294492,-0.626891325982034,-0.0013694029519442097,0.0014285392969764499,-0.000626891325982034,-4.405953725054467e-09,8.75557592399359e-09,6.6229313805628045e-09,-7.4376129055733254e-09,-2.075039890230588e-09,3.3075804233254585e-09
DRAM,41.1657209951,24.0688904507,2014-05-24T09:25:18.800000Z,6.86,40.3,25.67,12.0,343.0,87.0,-5.0,5.937583074887896,4.947516883242404,-2.876718999737253,1.5815995883210408,-0.0041975340063160616,-0.00389026268769066,0.0015815995883210407,4.3041916402717694e-08,2.6278005490565812e-08,4.704274650443775e-08,1.4685707650464181e-08,-1.5214436215641658e-08,-5.316277288989303e-09
DUTH,41.1402123929,24.916802209799982,2014-05-24T09:25:18.800000Z,6.86,40.3,25.67,12.0,343.0,87.0,-5.0,8.266698191154916,7.02316333108211,-4.016921420261422,1.6964133081394244,-0.0058947752941804765,-0.00554185033203991,0.0016964133081394245,1.426789636477938e-07,-1.0661472611336034e-07,1.1065316168495762e-07,-3.7237400222702934e-08,-3.324165247860025e-08,3.489035805259772e-08
DYNG,38.0785525841,23.932434752099997,2014-05-24T09:25:18.800000Z,6.86,40.3,25.67,12.0,343.0,87.0,-5.0,2.0756677361442213,-0.9657053958780336,-1.7270980728825263,-0.6268507684350326,-0.0013692871682593477,0.0014284632707293465,-0.0006268507684350326,-4.404246479190106e-09,8.755438091104642e-09,6.6210910756539945e-09,-7.438175120106853e-09,-2.0742674307595566e-09,3.3077512771694585e-09
EDES,40.8042949199,22.0512495232,2014-05-24T09:25:18.800000Z,6.86,40.3,25.67,12.0,343.0,87.0,-5.0,1.5068381579283026,1.2975637328912262,-0.6108471757584468,0.4623368048750562,-0.0009635269799161961,-0.0010622719388274637,0.0004623368048750562,-2.7697372019627936e-11,6.951169312495969e-09,-6.904404521805942e-11,7.79220245593384e-09,4.436646987874272e-10,-3.277159870686987e-09
EDIR,41.6767128926,26.551012440399973,2014-05-24T09:25:18.800000Z,6.86,40.3,25.67,12.0,343.0,87.0,-5.0,5.9186471830607195,2.6352791821028623,5.069171385159214,-1.545700351882888,0.004077191637527733,-0.004002212294546059,-0.001545700351882888,-3.155504110215679e-08,3.594642541560466e-08,4.080811907375922e-08,-2.4722151959412746e-08,1.140548881228232e-08,-8.86747131814675e-09
FLO2,40.7798843643,21.401717281800018,2014-05-24T09:25:18.800000Z,6.86,40.3,25.67,12.0,343.0,87.0,-5.0,1.061022307267949,0.9102482796520871,-0.4328204320018617,0.3314858662934808,-0.0006800390788441746,-0.0007439303113952467,0.0003314858662934808,-1.9489569222953573e-10,4.212475334732016e-09,-5.335869200370531e-10,4.834422911261187e-09,4.650374024110659e-10,-2.0940350913304706e-09
GOD1,41.5661061044,23.734247401599987,2014-05-24T09:25:18.800000Z,6.86,40.3,25.67,12.0,343.0,87.0,-5.0,3.3479670425927757,2.7454286645614183,-1.660996997762159,0.9552977229728005,-0.0023911049874527635,-0.0021398379653022603,0.0009552977229728005,2.3101155291836675e-08,5.0529986092725245e-09,2.1899387221715166e-08,2.0613561639200415e-09,-8.741591859992642e-09,-2.99497524329102e-10
GODA,40.1971577914,25.903455022199974,2014-05-24T09:25:18.800000Z,6.86,40.3,25.67,12.0,343.0,87.0,-5.0,135.1833372607986,-108.16761898948342,80.96661172852198,4.325350889295832,0.10905390702995277,0.07976886218414869,0.004325350889295832,1.9819935928507848e-06,6.515918418911903e-06,-2.8356396504154727e-06,2.4940275334331803e-06,-8.894163346003506e-07,7.988955498817748e-07
GOUM,40.9467922416,22.4474096335,2014-05-24T09:25:18.800000Z,6.86,40.3,25.67,12.0,343.0,87.0,-5.0,1.9707553787958247,1.6956224814563416,-0.8048895709550803,0.6007444897793562,-0.0012654717601989773,-0.0013862049073608551,0.0006007444897793562,1.26040795923606e-09,9.726532616176726e-09,2.466244963163972e-09,1.0088438192116686e-08,-3.821336559720754e-10,-4.252706154890854e-09
HALK,38.4654495787,23.6025408699,2014-05-24T09:25:18.800000Z,6.86,40.3,25.67,12.0,343.0,87.0,-5.0,2.1428589711685997,-1.0655129932728618,-1.7501912105106368,-0.6271820773394027,-0.0013621903282086123,0.0015306615308149918,-0.0006271820773394027,-8.371210260290958e-10,1.115059685944977e-08,2.1854391480203248e-09,-1.1981296316429832e-08,-1.7518175888369225e-12,4.743561790835529e-09
HAR3,41.9235503811,25.916516465100017,2014-05-24T09:25:18.800000Z,6.86,40.3,25.67,12.0,343.0,87.0,-5.0,4.059257806268508,1.618765776547322,3.5773387800153875,-1.0294748911114753,0.002947744779383754,-0.002593946048386253,-0.0010294748911114752,-4.057192455031571e-08,-1.0247604809855738e-08,3.3188810336452305e-08,5.5959403640446096e-09,1.2716031717698692e-08,5.94772968435817e-09
HARM,41.8844415837,25.84633229719998,2014-05-24T09:25:18.800000Z,6.86,40.3,25.67,12.0,343.0,87.0,-5.0,4.092053410765851,1.6519049735570892,3.6036300234371947,-1.0148703016050034,0.002963198256985322,-0.0026333240357540033,-0.0010148703016050033,-4.318207208698689e-08,-1.5659332840953667e-08,3.45431584241885e-08,7.355641337604249e-09,1.3156776063657303e-08,7.717670031951364e-09
IPS1,40.9214661402,26.385508862999984,2014-05-24T09:25:18.800000Z,6.86,40.3,25.67,12.0,343.0,87.0,-5.0,16.691936153547125,8.622815438026484,13.936728458209375,-3.1678677936370185,0.01080669245802568,-0.012320744470760758,-0.0031678677936370185,2.424800330938035e-09,2.501027866312771e-07,2.3563749485231692e-08,-2.6702964446923837e-07,-1.0661429060916121e-08,-5.070700497339256e-08
IPS4,40.9219251616,26.38526212310001,2014-05-24T09:25:18.800000Z,6.86,40.3,25.67,12.0,343.0,87.0,-5.0,16.6931619910892,8.622517884213636,13.938186145543236,-3.1687236498861484,0.010808173447671265,-0.01232088610516513,-0.0031687236498861484,2.1766018263106456e-09,2.5002193168349437e-07,2.4062055003857185e-08,-2.6677862539397747e-07,-1.0556031811777555e-08,-5.067597335128452e-08
IPSA,40.9175332766,26.37978245300002,2014-05-24T09:25:18.800000Z,6.86,40.3,25.67,12.0,343.0,87.0,-5.0,16.914225286764136,8.737336292587727,14.12598804622198,-3.1947508947701064,0.010954199644679363,-0.012485595457016996,-0.0031947508947701066,2.3544592552631657e-09,2.550149597892659e-07,2.4181211771884337e-08,-2.720173787602462e-07,-1.0821204025192176e-08,-5.123217412659407e-08
ISTI,38.9560170889,23.151901877400007,2014-05-24T09:25:18.800000Z,6.86,40.3,25.67,12.0,343.0,87.0,-5.0,1.5826144709806442,-0.7237102166044115,-1.3457648110532476,-0.4121033359129195,-0.0010753688994640243,0.0010855510740413465,-0.0004121033359129195,2.4269835441403085e-09,9.071681199374983e-09,-8.430959693749115e-09,-1.1238622867581825e-08,3.733687600250813e-09,3.964182325185041e-09
IZMI,38.3948077729,27.081822277699985,2014-05-24T09:25:18.800000Z,6.86,40.3,25.67,12.0,343.0,87.0,-5.0,1.6084431650166258,-1.4141116940214695,0.6600106333632209,0.3895683454387825,0.001044617554320837,0.0011593533044441384,0.00038956834543878247,1.2328102206713787e-08,-1.3609491227262415e-08,1.0281279838468337e-08,-3.1513217947831567e-09,4.152590655024441e-09,-5.428869563911936e-09
JGC1,38.0564578466,23.803418974199985,2014-05-24T09:25:18.800000Z,6.86,40.3,25.67,12.0,343.0,87.0,-5.0,1.9495220845649288,-0.9183889618510239,-1.614807791065511,-0.5912646369187896,-0.0012757374241871844,0.0013503838387154687,-0.0005912646369187896,-3.4646360430003304e-09,8.283515436000215e-09,5.489419618728254e-09,-7.349437476463079e-09,-1.644611977565652e-09,3.245678053044285e-09
KAL1,40.641903337,22.85687634110002,2014-05-24T09:25:18.800000Z,6.86,40.3,25.67,12.0,343.0,87.0,-5.0,2.4016385071489443,2.0818637227997985,-0.9734403365094949,0.6972265556955335,-0.0015395836690856868,-0.001706289768749203,0.0006972265556955334,-9.135290350346487e-10,1.4424786983931646e-08,-1.8177466018197961e-09,1.6641105710836197e-08,1.553573781616164e-09,-6.389573770403714e-09
KAL2,40.6427875418,22.848461085700023,2014-05-24T09:25:18.800000Z,6.86,40.3,25.67,12.0,343.0,87.0,-5.0,2.387730996098493,2.0696390820444224,-0.9678420229156269,0.6936390981500464,-0.001530655836113226,-0.0016962360751439087,0.0006936390981500465,-9.0325978858032e-10,1.4298858045375438e-08,-1.800719995709534e-09,1.6495107266488706e-08,1.5399780316782237e-09,-6.340199622771503e-09
KATE,40.2700826524,22.521258921100014,2014-05-24T09:25:18.800000Z,6.86,40.3,25.67,12.0,343.0,87.0,-5.0,1.4875722274285732,1.2517062283602012,-0.6925905781519092,0.4079472279061233,-0.0010282911476195977,-0.0009945187312402348,0.0004079472279061233,-2.132895707321837e-09,8.47068119394396e-09,-8.014846681915739e-09,1.0200567631353925e-08,3.4508572818805307e-09,-3.881550265217306e-09
KAV1,40.9338005429,24.38731428699998,2014-05-24T09:25:18.800000Z,6.86,40.3,25.67,12.0,343.0,87.0,-5.0,9.772312027608411,8.255298436377585,-4.662476779557974,2.368425715821486,-0.006872364395697161,-0.006531404872332558,0.002368425715821486,7.808733385646306e-08,6.775156482129285e-08,9.354247428340923e-08,4.181393275044758e-08,-2.449131733945862e-08,-1.2919950319241083e-08
KIKA,39.1059919179,27.672205827200003,2014-05-24T09:25:18.800000Z,6.86,40.3,25.67,12.0,343.0,87.0,-5.0,3.5512020289510153,-2.9368091043953806,1.7337244056920749,0.9901453529022262,0.0025166087789898484,0.002301592553877241,0.000990145352902226,2.1115820835806052e-08,1.0966143435639775e-08,2.2180082507759363e-08,5.736870454968579e-09,7.854445868826097e-09,2.279138635267975e-09
KIRL,41.7381230257,27.217951277099985,2014-05-24T09:25:18.800000Z,6.86,40.3,25.67,12.0,343.0,87.0,-5.0,3.785457938929123,1.8701834307317902,3.1192489121553892,-1.0499485543755076,0.0024361638519394546,-0.002700445431233489,-0.0010499485543755075,-4.08397402683367e-09,2.5298822419552528e-08,8.867582347548593e-09,-2.5467411845477485e-08,1.390985980436164e-09,-9.272526905411822e-09
KOM1,41.1224193267,25.39563979349998,2014-05-24T09:25:18.800000Z,6.86,40.3,25.67,12.0,343.0,87.0,-5.0,6.374894669010507,5.2715792816320395,3.568905979619469,-0.3356248308495797,0.0018717011407431983,-0.006084683463717433,-0.00033562483084957975,-6.027144839200148e-08,-3.4069502373469205e-07,1.2229321724018243e-07,2.2199090967712863e-08,8.01744858170068e-09,7.99558123441103e-08
KOMO,41.1199265338,25.4059249801,2014-05-24T09:25:18.800000Z,6.86,40.3,25.67,12.0,343.0,87.0,-5.0,6.546351498931063,5.265755807860036,3.8686738938573644,-0.39987000704200076,0.0021600732417681456,-0.006166758104159953,-0.00039987000704200075,-6.988578999689912e-08,-3.440293769158648e-07,1.2509188513796724e-07,2.5741516237825846e-08,9.58126643368207e-09,8.055566849266876e-08
KORI,37.94156644,22.93094050510001,2014-05-24T09:25:18.800000Z,6.86,40.3,25.67,12.0,343.0,87.0,-5.0,1.240769068946282,-0.6119543646150498,-1.0098054506190342,-0.3811990162402093,-0.0007867636142293577,0.0008804534103495076,-0.0003811990162402093,-2.4690532573495213e-10,4.973869390533504e-09,6.190868005236202e-10,-5.4521916612676166e-09,1.0042166672459323e-10,2.3235947682739158e-09
KRU1,41.4734796865,25.65192244790001,2014-05-24T09:25:18.800000Z,6.86,40.3,25.67,12.0,343.0,87.0,-5.0,6.250424571827021,2.709805356392334,5.485765899159384,-1.2771588617656175,0.004453793607950729,-0.00419528247769918,-0.0012771588617656177,-9.458243740261222e-08,-7.252059358517144e-08,7.244297436725281e-08,2.491474262250439e-08,2.2419035146331816e-08,2.52488564886136e-08
KRYO,37.9723055725,22.617881578499976,2014-05-24T09:25:18.800000Z,6.86,40.3,25.67,12.0,343.0,87.0,-5.0,1.0601429882232405,-0.5230719670362152,-0.8635850500696719,-0.3232951191650263,-0.0006729190478651503,0.0007527040430496124,-0.0003232951191650263,2.241416883497663e-10,4.1474114678939055e-09,-4.496049940190248e-10,-4.818258710438657e-09,4.749324560169499e-10,2.0202194175653008e-09
KYMI,38.6349290876,24.10519656010001,2014-05-24T09:25:18.800000Z,6.86,40.3,25.67,12.0,343.0,87.0,-5.0,3.1885091085523425,-1.5521140657539516,-2.6338174447573133,-0.9058354872172152,-0.0020649379134312085,0.0022543477591298045,-0.0009058354872172152,-4.8964439319484355e-09,1.8640515359335995e-08,9.18183019508503e-09,-1.780211755190338e-08,-1.9735918593318e-09,6.917676183003942e-09
LEMN,39.8972205094,25.1805653271,2014-05-24T09:25:18.800000Z,6.86,40.3,25.67,12.0,343.0,87.0,-5.0,32.86974781299555,-17.152713495843766,-27.722904938206607,-4.2006288584669065,-0.021496577756117574,0.024508614470396567,-0.004200628858466907,5.79895700552873e-08,7.044614325425801e-07,-9.912803665491157e-08,-7.649011853784453e-07,7.10423607105601e-08,8.349817025410322e-08
LES4,39.1000831959,26.553788731999987,2014-05-24T09:25:18.800000Z,6.86,40.3,25.67,12.0,343.0,87.0,-5.0,3.976418811127964,-3.491151142409352,1.719527908124781,0.8166970279890953,0.002665106527501848,0.0028358631354550856,0.0008166970279890953,5.036173002644483e-08,-5.7187474225032666e-08,4.003266853143513e-08,-1.4394827757554602e-08,1.287186420121107e-08,-1.916744294244146e-08
LYGO,37.6124995546,23.037670434099997,2014-05-24T09:25:18.800000Z,6.86,40.3,25.67,12.0,343.0,87.0,-5.0,1.1722558786879382,-0.5657204419352933,-0.9583366013796525,-0.3684225633034215,-0.0007510611997076921,0.0008211916550117937,-0.00036842256330342146,-9.305131961134891e-10,4.215991523367679e-09,1.6901680688012681e-09,-4.1947777365594e-09,-4.212173671322504e-10,1.894798317649809e-09
MABM,41.9848909247,21.468106073700028,2014-05-24T09:25:18.800000Z,6.86,40.3,25.67,12.0,343.0,87.0,-5.0,1.079691897114274,0.8978218859752792,-0.48547201506775395,0.3520900117073289,-0.0007267569122362261,-0.0007166530589253206,0.0003520900117073289,2.4062941888515902e-09,2.7618673277148263e-09,2.9867596318661686e-09,2.0807147714948786e-09,-1.2254925533365588e-09,-1.0801358414651487e-09
MARM,40.0937483798,23.780490267599987,2014-05-24T09:25:18.800000Z,6.86,40.3,25.67,12.0,343.0,87.0,-5.0,2.797397715961315,2.0826633330770066,-1.7873728292527,0.5415217369333856,-0.002318184966348724,-0.0014690836094276571,0.0005415217369333855,-7.576212270917866e-09,2.8665816598268345e-08,-5.339881838698014e-08,2.614068526579394e-08,1.8004490903628014e-08,-8.409668825051427e-09
MEN1,37.5610401117,23.38605018049998,2014-05-24T09:25:18.800000Z,6.86,40.3,25.67,12.0,343.0,87.0,-5.0,1.3044205166591383,-0.612014350674518,-1.0763529472193023,-0.4103847607575886,-0.0008503857634991618,0.0008999673803295194,-0.0004103847607575886,-1.8752618052713666e-09,4.528254515043751e-09,2.9292525589020114e-09,-4.061051321812988e-09,-9.434807437568584e-10,1.89663047442923e-09
MET0,38.0652631395,23.7623150128,2014-05-24T09:25:18.800000Z,6.86,40.3,25.67,12.0,343.0,87.0,-5.0,1.9265442457341582,-0.912297703402732,-1.5930661229404683,-0.5843166599344245,-0.00125672667517307,0.0013382020907183323,-0.0005843166599344245,-3.179211840195753e-09,8.262930753694744e-09,5.158754820517912e-09,-7.460575875221247e-09,-1.5051540501701076e-09,3.2767343438215108e-09
MNTS,38.426584765,26.71742915110002,2014-05-24T09:25:18.800000Z,6.86,40.3,25.67,12.0,343.0,87.0,-5.0,1.3843697523251217,-1.3364517206173039,0.27509106089914154,0.23388312856029506,0.0006538115576972814,0.0011976262941122418,0.00023388312856029506,8.684655171717898e-09,-2.199949993607045e-08,1.0555602114503175e-08,-2.5768849893385057e-09,2.7539219881681915e-09,-8.080180419393377e-09
MOUD,39.8735947713,25.268779123900003,2014-05-24T09:25:18.800000Z,6.86,40.3,25.67,12.0,343.0,87.0,-5.0,39.89751792063202,-20.394231550543722,-33.924290461596996,-5.0029763508494876,-0.026479264066153974,0.02942160325976273,-0.005002976350849488,-9.319390308502339e-08,8.492488855895991e-07,2.2396278327473597e-07,-8.222643482173622e-07,3.1491942550128765e-08,8.602203206823087e-08
MTNA,37.6126904064,23.32955878849998,2014-05-24T09:25:18.800000Z,6.86,40.3,25.67,12.0,343.0,87.0,-5.0,1.3092409869797565,-0.6195905044732879,-1.077652223890661,-0.41095650998344835,-0.0008494132149579059,0.000907592363974502,-0.00041095650998344835,-1.6754068724587956e-09,4.672497350446839e-09,2.7213445331474902e-09,-4.309645157394279e-09,-8.341547865397489e-10,1.9873137896080843e-09
MYKN,37.4416454862,25.329069226700028,2014-05-24T09:25:18.800000Z,6.86,40.3,25.67,12.0,343.0,87.0,-5.0,1.283602728775989,-0.531164788877249,-1.1069622131026926,-0.3743455504489693,-0.0009032956742487386,0.000831599843111902,-0.0003743455504489693,-7.283621097043323e-09,-2.5519775458476234e-09,6.000666229561938e-09,9.909225382962742e-10,-2.8719630938673895e-09,-1.3797807463480855e-09
NEG1,41.4837411233,22.089008849200013,2014-05-24T09:25:18.800000Z,6.86,40.3,25.67,12.0,343.0,87.0,-5.0,1.573361487383018,1.3270642529391146,-0.6828365452093517,0.4980974714629757,-0.0010409958736374847,-0.001069435771784366,0.0004980974714629757,3.0662742226554716e-09,5.717759203988957e-09,4.361562004396388e-09,4.829896796880845e-09,-1.5412935943540701e-09,-2.303423357431734e-09
NOA1,38.0470629094,23.864033881199987,2014-05-24T09:25:18.800000Z,6.86,40.3,25.67,12.0,343.0,87.0,-5.0,1.9854065695334588,-0.9281374618508912,-1.6486742790853015,-0.6018913687187779,-0.0013052739221848242,0.0013696079784641657,-0.000601891368718778,-3.898252503181868e-09,8.319044801416501e-09,5.976464040841694e-09,-7.194643898553933e-09,-1.8499116584974568e-09,3.201173184694365e-09
NVRK,41.3357359645,23.869731234899973,2014-05-24T09:25:18.800000Z,6.86,40.3,25.67,12.0,343.0,87.0,-5.0,4.4572555055404495,3.6867848033784134,-2.1776663865266275,1.2379473188470906,-0.003160424280245877,-0.0028890018079368307,0.0012379473188470907,3.052493504485928e-08,1.4232840629854568e-08,3.163182267564358e-08,7.4006681231442584e-09,-1.1338749785131445e-08,-2.7377449376612827e-09
ORE1,41.4141841606,26.5457880029,2014-05-24T09:25:18.800000Z,6.86,40.3,25.67,12.0,343.0,87.0,-5.0,8.099325199106792,3.8138354811808544,6.864878162877076,-1.9817102240806355,0.005449858055101231,-0.00565428514030808,-0.0019817102240806354,-3.408555681716078e-08,6.850045659043149e-08,5.349930083756264e-08,-5.537049570250285e-08,1.1411966819608845e-08,-1.7148474519121335e-08
PRIL,41.3435676742,21.5596416217,2014-05-24T09:25:18.800000Z,6.86,40.3,25.67,12.0,343.0,87.0,-5.0,1.2371482228581707,1.05167090811915,-0.5169427934178035,0.39660329634329944,-0.0008018336681203664,-0.0008545784453866112,0.00039660329634329944,1.3329239883396568e-09,4.455035298904352e-09,2.158147162876034e-09,4.23821366052329e-09,-6.651053979647984e-10,-1.9859774006423237e-09
PRKV,39.2457022095,26.265000586300005,2014-05-24T09:25:18.800000Z,6.86,40.3,25.67,12.0,343.0,87.0,-5.0,4.230900056682653,-4.063242719390902,1.0267883371664321,0.5798962007231194,0.0021698997707702006,0.003585494480658924,0.0005798962007231194,5.142592363983392e-08,-1.2790228098530545e-07,5.5657018459289076e-08,-1.708593265322362e-08,1.081407605798831e-08,-3.615218419162246e-08
PRO2,41.0684409335,23.386980109499973,2014-05-24T09:25:18.800000Z,6.86,40.3,25.67,12.0,343.0,87.0,-5.0,3.7756821564655776,3.2194749859868206,-1.6452504713232352,1.0880751113174076,-0.00251464424044201,-0.0025977745558065646,0.0010880751113174075,1.087346595340177e-08,2.180365122026772e-08,1.6234586676901767e-08,1.829624028928423e-08,-4.738124005134362e-09,-7.4682637997347e-09
PTOL,40.5113945817,21.678138458700005,2014-05-24T09:25:18.800000Z,6.86,40.3,25.67,12.0,343.0,87.0,-5.0,1.095491902999979,0.9361917557044024,-0.46359636168414187,0.32973613621022774,-0.0007170553850883721,-0.0007597421699046536,0.00032973613621022774,-7.596458826884526e-10,4.788875614995164e-09,-2.2706005520594797e-09,5.758079171662966e-09,1.1797589049925765e-09,-2.386966077986575e-09
ROZH,41.6955521748,24.740502577799987,2014-05-24T09:25:18.800000Z,6.86,40.3,25.67,12.0,343.0,87.0,-5.0,2.5737054127293657,2.399955881561425,-0.777108093479281,0.5101708822739248,-0.001444831358043075,-0.002067884805594278,0.0005101708822739248,2.4685835079595233e-08,-4.546078881569324e-08,2.436052602557435e-08,-7.361313250552524e-09,-7.554590799888244e-09,1.571904695002505e-08
SALH,38.4830903176,28.12354599150001,2014-05-24T09:25:18.800000Z,6.86,40.3,25.67,12.0,343.0,87.0,-5.0,1.8168136576645506,-1.4813931490306205,0.9020999927929636,0.5408343625219469,0.001295799953808796,0.0011529148011457935,0.0005408343625219469,9.709483944308781e-09,1.2762375931715386e-09,8.880830511189258e-09,4.399454195791948e-10,3.890335911425174e-09,-1.2418579771042162e-10
SAN9,41.5505621693,23.267824098999995,2014-05-24T09:25:18.800000Z,6.86,40.3,25.67,12.0,343.0,87.0,-5.0,2.764268228677673,2.2871530874198633,-1.316255265877856,0.8231534910521852,-0.0019274400179511986,-0.0018023795791801689,0.0008231534910521851,1.337149658069619e-08,8.428696048004068e-09,1.4578192859734625e-08,5.0911198657414274e-09,-5.635714408685244e-09,-2.3004302397883955e-09
SARY,41.4429694316,27.916436478399987,2014-05-24T09:25:18.800000Z,6.86,40.3,25.67,12.0,343.0,87.0,-5.0,2.102441363439298,0.9671139552494734,1.7846492075238305,-0.5477020087116501,0.001423911769123265,-0.0014466366060991165,-0.0005477020087116501,3.7091650273663375e-09,1.3824766040174357e-08,-1.2601431984637139e-08,-1.712264877756356e-08,-5.227395836179035e-09,-5.912582327620226e-09
SERR,41.2859119597,23.03745487290001,2014-05-24T09:25:18.800000Z,6.86,40.3,25.67,12.0,343.0,87.0,-5.0,2.777621787912921,2.3444110211555182,-1.2352011091141906,0.8325851191416933,-0.0018666681420427267,-0.0018808335555160482,0.0008325851191416933,8.456096532223951e-09,1.2675812258606868e-08,1.1495060280868043e-08,9.961888296515077e-09,-3.858195411928633e-09,-4.432418127473724e-09
SKO1,41.999682373,21.407432605,2014-05-24T09:25:18.800000Z,6.86,40.3,25.67,12.0,343.0,87.0,-5.0,1.0522227493369058,0.8750170880420575,-0.472604864869324,0.3437476568041789,-0.0007077845176581832,-0.000698606712841443,0.0003437476568041789,2.3005003611733148e-09,2.667311692104556e-09,2.861777840324818e-09,2.0165473639346825e-09,-1.175852180081596e-09,-1.0489683878888002e-09
SKOP,39.1217927588,23.72779715659999,2014-05-24T09:25:18.800000Z,6.86,40.3,25.67,12.0,343.0,87.0,-5.0,2.7282736933412886,-1.3464018068843813,-2.265897094923252,-0.7045494130399621,-0.001773238376877373,0.0019500546477297653,-0.0007045494130399621,4.239853715895981e-09,1.8964736215849876e-08,-1.110659846577899e-08,-2.379947139358472e-08,5.281400614593754e-09,7.852984094074668e-09
SKP1,39.1174027823,23.733093354999998,2014-05-24T09:25:18.800000Z,6.86,40.3,25.67,12.0,343.0,87.0,-5.0,2.744403150590226,-1.3568967259363929,-2.277398688986827,-0.7099543221318825,-0.0017811689886073623,0.0019634537293960475,-0.0007099543221318824,4.197362335725807e-09,1.9069764286673446e-08,-1.0860498892427679e-08,-2.3909213031867352e-08,5.207473785879005e-09,7.898024601525301e-09
SKYR,38.9044471697,24.56458582670001,2014-05-24T09:25:18.800000Z,6.86,40.3,25.67,12.0,343.0,87.0,-5.0,5.18023863866104,-2.450653473117018,-4.3506958894273895,-1.3786280085272864,-0.0034440894371883246,0.0036155919454812224,-0.0013786280085272863,-1.656904689382191e-08,3.529303545212834e-08,2.640528729876714e-08,-2.964643517389764e-08,-6.303376101198693e-09,1.0733568403621936e-08
SLVR,41.0760828179,28.24847233029999,2014-05-24T09:25:18.800000Z,6.86,40.3,25.67,12.0,343.0,87.0,-5.0,1.2026121543302288,0.11206129218745674,1.1845532312921128,-0.17479102600386973,0.0011000303377457499,-0.00045349459424592897,-0.00017479102600386973,1.671709496571616e-09,9.188542374128677e-09,-1.9891663822829976e-08,-5.627786734294682e-09,-7.352955251908828e-09,-1.9850910272483494e-09
SMLN,41.5750322977,24.711539507099985,2014-05-24T09:25:18.800000Z,6.86,40.3,25.67,12.0,343.0,87.0,-5.0,3.3260602861591604,2.972522161647405,-1.3039343293892838,0.7256337163613,-0.0021160399723854084,-0.002461403577658894,0.0007256337163613,3.7643146388417164e-08,-4.865189231665441e-08,3.2076992608882144e-08,-1.0655318515460762e-08,-1.113202090517089e-08,1.6939998368005016e-08
SMOL,41.5774998308,24.705874318899987,2014-05-24T09:25:18.800000Z,6.86,40.3,25.67,12.0,343.0,87.0,-5.0,3.3213781140892396,2.964631402423155,-1.3090130996522578,0.7273224384386212,-0.002118589789816383,-0.0024523727183649036,0.0007273224384386212,3.7546900765158286e-08,-4.799271138229491e-08,3.190545847074289e-08,-1.0593086883000787e-08,-1.11233707291214e-08,1.6751382654701753e-08
SPET,37.267393172,23.155387420299974,2014-05-24T09:25:18.800000Z,6.86,40.3,25.67,12.0,343.0,87.0,-5.0,1.067340501368831,-0.49930139970207726,-0.8795143192508904,-0.34112815824914944,-0.0006951021250358735,0.0007346294040415369,-0.00034112815824914947,-1.4002239915013392e-09,3.3382875925748617e-09,2.1624021197511016e-09,-2.9975274531855988e-09,-7.221171845959737e-10,1.435479567812781e-09
STRA,40.5202235378,23.790767596699997,2014-05-24T09:25:18.800000Z,6.86,40.3,25.67,12.0,343.0,87.0,-5.0,5.150654123876209,4.515747229832879,-2.08538261727589,1.337327259732353,-0.003314538030586789,-0.0037087236818039715,0.001337327259732353,-4.991814628792006e-09,4.622916043921146e-08,-9.362111177180427e-09,5.416169201507496e-08,5.809133744322733e-09,-1.7399007548514027e-08
SVIL,41.7609151624,26.196166508899974,2014-05-24T09:25:18.800000Z,6.86,40.3,25.67,12.0,343.0,87.0,-5.0,5.584321548384835,2.2536779456913245,4.905428466821596,-1.4291096633065195,0.004032172909980147,-0.0035894114211136863,-0.0014291096633065195,-4.8589986286901166e-08,1.3417067178201463e-08,4.711882676824744e-08,-4.6883054017787925e-09,1.568406060815841e-08,-4.659609779113029e-10
SYR1,37.4403388988,24.93940574390001,2014-05-24T09:25:18.800000Z,6.86,40.3,25.67,12.0,343.0,87.0,-5.0,1.4331645744979433,-0.5758739054925627,-1.2388715040603342,-0.433044269094858,-0.0010163694759057762,0.0009129219282320855,-0.000433044269094858,-7.164669286771622e-09,1.4670069592269786e-10,6.408510374741124e-09,1.6662333716605687e-11,-2.959962726480223e-09,-3.678020360545432e-10
SYRO,37.3930522719,24.884953749500028,2014-05-24T09:25:18.800000Z,6.86,40.3,25.67,12.0,343.0,87.0,-5.0,1.3975269384563411,-0.5620292816821011,-1.2070068019117963,-0.4246636438190975,-0.0009899448859584936,0.0008903659113499718,-0.00042466364381909746,-6.7476217901283245e-09,3.9199571117421225e-10,6.106374197426263e-09,-1.1079832197269675e-10,-2.817065162723389e-09,-2.4819078295375765e-10
TEIS,41.0743176281,23.55528687719999,2014-05-24T09:25:18.800000Z,6.86,40.3,25.67,12.0,343.0,87.0,-5.0,4.288326378270568,3.646735758263411,-1.9009985646860623,1.2154282755620291,-0.0028841363188050195,-0.0029315925583350277,0.001215428275562029,1.5107010114259385e-08,2.5202517319143657e-08,2.1441118048123586e-08,2.0087206140957564e-08,-6.358756025403444e-09,-8.089653759274445e-09
TEKR,40.9583356342,27.496498510899983,2014-05-24T09:25:18.800000Z,6.86,40.3,25.67,12.0,343.0,87.0,-5.0,2.5402513353594856,0.6859480287486437,2.3998955042012984,-0.472073847576731,0.002094479689965567,-0.0013576369019555612,-0.00047207384757673096,6.706829261697999e-09,2.454735651005233e-08,-4.695901574106072e-08,-2.2607374102578752e-08,-1.5742146944516556e-08,-6.882229155860905e-09
THI1,38.3165538407,23.318384063700023,2014-05-24T09:25:18.800000Z,6.86,40.3,25.67,12.0,343.0,87.0,-5.0,1.7096781754243195,-0.8501228800250761,-1.3933695495743288,-0.5087355410221817,-0.0010839340514152696,0.001220358383838771,-0.0005087355410221817,-2.391027878638635e-10,8.119557036980086e-09,8.170122515753933e-10,-8.98292205189494e-09,2.7673848239434156e-10,3.6330960554789584e-09
THIV,38.3162066042,23.31695002390001,2014-05-24T09:25:18.800000Z,6.86,40.3,25.67,12.0,343.0,87.0,-5.0,1.7080230575056248,-0.8493101162428025,-1.3920088283787793,-0.5082583133939265,-0.001082870416396986,0.001219183297592713,-0.0005082583133939264,-2.356515528654531e-10,8.109291741729527e-09,8.094278774171619e-10,-8.973668740635443e-09,2.788978516065635e-10,3.62940561684361e-09
THS1,40.6274706714,22.95935845690002,2014-05-24T09:25:18.800000Z,6.86,40.3,25.67,12.0,343.0,87.0,-5.0,2.5768756770185917,2.2360158935416643,-1.0442676924674774,0.7416374890118136,-0.001652385939387102,-0.0018329983079692358,0.0007416374890118135,-1.0934882926478371e-09,1.606829725872828e-08,-2.154069480892943e-09,1.857380749261737e-08,1.7713058745816626e-09,-7.03221803282787e-09
VAL5,41.3182598823,22.56343924980001,2014-05-24T09:25:18.800000Z,6.86,40.3,25.67,12.0,343.0,87.0,-5.0,2.0818916094914814,1.7628610768296928,-0.9021853231794741,0.6423823939908646,-0.0013781748135386351,-0.001422058970960538,0.0006423823939908646,4.488687086192654e-09,8.845794055156846e-09,6.536483620628086e-09,7.51743921036421e-09,-2.173834904152816e-09,-3.428045641236208e-09
VDVA,41.3132272473,22.558289453399997,2014-05-24T09:25:18.800000Z,6.86,40.3,25.67,12.0,343.0,87.0,-5.0,2.077900174132491,1.760001567401334,-0.8994075662993998,0.6411939223730025,-0.0013746823917770712,-0.00142013654600881,0.0006411939223730026,4.424763578581712e-09,8.851915997827432e-09,6.469505039245639e-09,7.549390573717453e-09,-2.144048842959994e-09,-3.4390693895872925e-09
VELE,41.7181891825,21.770523213200025,2014-05-24T09:25:18.800000Z,6.86,40.3,25.67,12.0,343.0,87.0,-5.0,1.2977045735161934,1.0868869789032622,-0.5729680917548245,0.4176379066203398,-0.0008657071100230951,-0.000871875529381394,0.0004176379066203398,2.717166526044151e-09,3.989302235175396e-09,3.6088712490640275e-09,3.1912091248233236e-09,-1.3819246156446368e-09,-1.5920944823948344e-09
VER6,40.4964078545,22.23951788390002,2014-05-24T09:25:18.800000Z,6.86,40.3,25.67,12.0,343.0,87.0,-5.0,1.4791226633729784,1.2691468153136463,-0.6229220667529506,0.4347853645593827,-0.0009667659529668526,-0.00103156634893381,0.0004347853645593827,-1.2292797903259545e-09,7.50829629550959e-09,-3.5236605125120646e-09,9.059605705428824e-09,1.793991964936919e-09,-3.6070111694515805e-09
VERI,40.5228372814,22.20442075530002,2014-05-24T09:25:18.800000Z,6.86,40.3,25.67,12.0,343.0,87.0,-5.0,1.4702022385702183,1.2625766656078277,-0.6152119434680335,0.43463668779083336,-0.0009574717995306514,-0.0010275375054111802,0.00043463668779083336,-1.116608682417259e-09,7.365644991558103e-09,-3.124391080518076e-09,8.852268277714666e-09,1.638438604162388e-09,-3.5448711786045565e-09
VINI,41.88406471,22.504528124099977,2014-05-24T09:25:18.800000Z,6.86,40.3,25.67,12.0,343.0,87.0,-5.0,1.6541944636418064,1.3644469220377817,-0.777734010639273,0.5193974674368163,-0.0011426764058484196,-0.001077439662292401,0.0005193974674368163,5.989625350428971e-09,4.026554349039286e-09,6.587277409586756e-09,2.5685032195069456e-09,-2.756046213119832e-09,-1.2747696138891657e-09
VOLO,39.3529735531,22.887242326399985,2014-05-24T09:25:18.800000Z,6.86,40.3,25.67,12.0,343.0,87.0,-5.0,1.0237843170942131,-0.1604046998223158,-0.9991030295634856,-0.15555640944699828,-0.0009085491833360493,0.0004455052332660303,-0.00015555640944699828,1.453435968684583e-09,6.918911346589271e-09,-1.4174847199705706e-08,-4.9769257646567545e-09,5.52923008123847e-09,1.5971618237148972e-09
XIOS,38.3679125922,26.12716884560001,2014-05-24T09:25:18.800000Z,6.86,40.3,25.67,12.0,343.0,87.0,-5.0,1.4471342431867482,-1.0430975219803957,-0.9767768393546252,-0.2281492571594955,-0.0006291241362958999,0.0012831010308589075,-0.0002281492571594955,-8.726782501439117e-09,-2.5127811148463873e-08,1.1677769516598595e-08,2.7313301565017107e-09,-2.8343082296469387e-09,-9.085878585151867e-09
YEN1,39.9289807391,27.258899585099982,2014-05-24T09:25:18.800000Z,6.86,40.3,25.67,12.0,343.0,87.0,-5.0,7.822241814448479,-6.914396580169884,3.17143964471767,1.8222396976672155,0.005054436730766554,0.005685031118879635,0.0018222396976672155,7.431447999848824e-09,7.77896437075383e-08,2.24106068764985e-08,7.984151422688835e-08,-1.9962064845519138e-10,2.182474963653887e-08
YENC,39.9359400202,27.24170605910001,2014-05-24T09:25:18.800000Z,6.86,40.3,25.67,12.0,343.0,87.0,-5.0,7.984752896169803,-7.062560964754023,3.2341887361382655,1.8483870403844354,0.005157763059024489,0.005808375365693341,0.0018483870403844353,7.234690188287972e-09,8.039682812288324e-08,2.2525107590566898e-08,8.2765988514557e-08,-4.527333572277497e-10,2.2373648228510146e-08
