Station_ID,Station Latitude (°N),Station Longitude (°E),Event Date,Event Mag,Event Latitude (°N),Event Longitude (°E),Event Depth (km),Strike (°),Dip (°),Rake (°),Total Displacement [mm],dE [mm],dN [mm],dH [mm],ux [m],uy [m],uz [m],uxx,uxy,uyx,uyy,uzx,uzy
AFY0,40.1010700264,23.434337137499995,2014-05-24T09:25:18.800000Z,6.86,40.3,25.67,12.0,343.0,87.0,-5.0,2.1992689162474073,1.7121835992335759,-1.294135941929899,0.48002422052727256,-0.001738182393836496,-0.001259000587543968,0.00048002422052727256,-5.2149496860843765e-09,1.8655985517150887e-08,-3.1000829585472776e-08,1.895571627872051e-08,1.1233985258930493e-08,-6.432292648348606e-09
AFYT,40.0971361938,23.4353250602,2014-05-24T09:25:18.800000Z,6.86,40.3,25.67,12.0,343.0,87.0,-5.0,2.1869809308321466,1.6970331692481606,-1.2952366272828322,0.47468525744958495,-0.0017348054274322067,-0.00124419035004103,0.00047468525744958495,-5.1748436965663235e-09,1.8594891671351892e-08,-3.117011797226702e-08,1.875455718628787e-08,1.1283140813148487e-08,-6.367223537070351e-09
ALE3,40.8491656686,25.853456076600025,2014-05-24T09:25:18.800000Z,6.86,40.3,25.67,12.0,343.0,87.0,-5.0,36.44427924022732,15.031983486982508,32.86190058149914,-4.724452556478437,0.027031065178618974,-0.02398304719360117,-0.004724452556478437,-7.265650352475298e-07,2.9070930329367035e-07,7.766882062734162e-07,-9.044641259009824e-08,8.419919800869257e-08,2.1031881477188205e-08
ANAV,37.7333572797,23.904107016900014,2014-05-24T09:25:18.800000Z,6.86,40.3,25.67,12.0,343.0,87.0,-5.0,1.669559159827897,-0.7539020825804703,-1.3972791367397701,-0.5164014446899096,-0.0011158050467940939,0.0011294850302842607,-0.0005164014446899096,-4.038026398106135e-09,5.739389964088564e-09,5.45862865040613e-09,-4.4965260530999974e-09,-1.9407002650857844e-09,2.1332370118558633e-09
ANDR,37.8863734555,24.73709084040001,2014-05-24T09:25:18.800000Z,6.86,40.3,25.67,12.0,343.0,87.0,-5.0,2.0873824424334924,-0.8554514996369882,-1.7996163753900007,-0.6218915453490224,-0.00147087188543793,0.0013442292451182891,-0.0006218915453490223,-1.0321153227426814e-08,3.711797446996735e-09,1.0337483586494772e-08,-1.875781090076828e-09,-4.263260582234341e-09,7.438193424765717e-10
ARKI,38.7550567243,23.03360943040002,2014-05-24T09:25:18.800000Z,6.86,40.3,25.67,12.0,343.0,87.0,-5.0,1.472778230683757,-0.7015289852245767,-1.2302673204356542,-0.4041968826374448,-0.0009714032643159953,0.0010305708587566298,-0.0004041968826374448,1.756666717969915e-09,7.707356816446824e-09,-5.29765717379181e-09,-9.59334785002633e-09,2.5445457823673927e-09,3.5369013053571695e-09
ATAL,38.6530574661,22.999356368199983,2014-05-24T09:25:18.800000Z,6.86,40.3,25.67,12.0,343.0,87.0,-5.0,1.4414219957837402,-0.6973420943107064,-1.1949445992494354,-0.4043745518156963,-0.0009388481064860343,0.0010162395508543365,-0.0004043745518156963,1.4606454388575886e-09,7.260499681873775e-09,-4.077290456341128e-09,-8.993522113825433e-09,2.0732802737180266e-09,3.382963729094458e-09
AUT1,40.5668190085,23.003720411199996,2014-05-24T09:25:18.800000Z,6.86,40.3,25.67,12.0,343.0,87.0,-5.0,2.584677795258079,2.2422241595280035,-1.0545479651961402,0.7354717620886506,-0.0016640321343999176,-0.0018359296413955617,0.0007354717620886506,-1.8214211279892116e-09,1.655254203703563e-08,-4.1137066617945694e-09,1.9544092810634124e-08,2.493522845466524e-09,-7.280103064242007e-09
AYD1,37.8407265492,27.83788451110001,2014-05-24T09:25:18.800000Z,6.86,40.3,25.67,12.0,343.0,87.0,-5.0,1.0503421563613162,-0.8834226047160236,0.4845882807033105,0.2965760359697079,0.0007217018504519501,0.0007031413366972994,0.0002965760359697079,5.9446898193729554e-09,-3.7950012537735514e-09,4.78961104947318e-09,-1.1436632181245715e-09,2.295058776002869e-09,-1.7704880190882501e-09
AYVL,39.3114429293,26.6861782332,2014-05-24T09:25:18.800000Z,6.86,40.3,25.67,12.0,343.0,87.0,-5.0,6.55635370373549,-5.402823757176876,3.4150788930616236,1.4603100669160052,0.004845488979626111,0.00416827361689126,0.0014603100669160051,8.901684064505409e-08,-3.0778218461661924e-08,6.979604911242961e-08,-1.6402816234023675e-08,2.2180648936988044e-08,-1.3947415502176383e-08
BAL1,39.6294995568,27.892661172399983,2014-05-24T09:25:18.800000Z,6.86,40.3,25.67,12.0,343.0,87.0,-5.0,4.029019337842174,-3.485388671047386,1.6947766290642268,1.1012696372907151,0.0026397519780445577,0.0028375890303385387,0.0011012696372907152,7.906098046826737e-09,2.6378280775334053e-08,1.4279283013199777e-08,2.4306354661665603e-08,2.9669901137659145e-09,8.893573972748227e-09
BALK,39.6393659686,27.89363153369999,2014-05-24T09:25:18.800000Z,6.86,40.3,25.67,12.0,343.0,87.0,-5.0,4.031498565660312,-3.490013611660521,1.6913820476564592,1.1009143673378456,0.00263785792547111,0.0028430043625959356,0.0011009143673378456,7.612697560292379e-09,2.6554637515406388e-08,1.3950422475129935e-08,2.4656217654903308e-08,2.826200139217646e-09,8.988173441683325e-09
BAND,40.3312259578,27.99671177990001,2014-05-24T09:25:18.800000Z,6.86,40.3,25.67,12.0,343.0,87.0,-5.0,2.5549222579134905,-2.168549943704537,1.2137862435766114,0.5930782752259569,0.0017947722012721101,0.0017189178715045217,0.000593078275225957,-5.9931272067099505e-09,1.9766237809431043e-08,-2.2658126131692312e-08,2.422622052640958e-08,-8.823188910006901e-09,7.350984369971722e-09
BEL2,39.2949447484,23.133333828800005,2014-05-24T09:25:18.800000Z,6.86,40.3,25.67,12.0,343.0,87.0,-5.0,1.3467147950908311,-0.4144399918090354,-1.25234001422512,-0.27115442330246514,-0.0010764481847758134,0.0007624797200797562,-0.00027115442330246514,2.4993246530631026e-09,9.039209234580801e-09,-1.5636380830369345e-08,-8.973814172754366e-09,6.1385093220973065e-09,2.9182590978098887e-09
BERO,41.7053652707,22.8529759507,2014-05-24T09:25:18.800000Z,6.86,40.3,25.67,12.0,343.0,87.0,-5.0,2.0875804942005582,1.7262894786898575,-0.9829262991454981,0.6416952906009854,-0.0014446952923634626,-0.0013634790009420805,0.0006416952906009854,8.393899125696136e-09,5.851395290849244e-09,9.320902442138119e-09,3.716760682402918e-09,-3.744561134463106e-09,-1.783784265850345e-09
BITO,41.0241015206,21.335470869900007,2014-05-24T09:25:18.800000Z,6.86,40.3,25.67,12.0,343.0,87.0,-5.0,1.0872814342771884,0.9312154843566808,-0.4420680997422407,0.34582428227135364,-0.0006950128848686177,-0.000761277592591536,0.00034582428227135364,3.0607915097998153e-10,4.090155557361204e-09,5.56964174934404e-10,4.401372625386738e-09,6.424299763500574e-12,-1.9735442096274264e-09
BNDR,40.3486525482,27.97494641869997,2014-05-24T09:25:18.800000Z,6.86,40.3,25.67,12.0,343.0,87.0,-5.0,2.543352527392594,-2.148251996278299,1.231301344072674,0.5809926326257736,0.001805587429686284,0.0016943859280540985,0.0005809926326257736,-6.129183690327978e-09,1.995036760765577e-08,-2.4130708333992574e-08,2.4229010464680317e-08,-9.27393091783862e-09,7.287558563877711e-09
CANA,40.1112056146,26.414336083900025,2014-05-24T09:25:18.800000Z,6.86,40.3,25.67,12.0,343.0,87.0,-5.0,31.375720696806596,-28.30400787959566,12.983222037635425,3.841215005341684,0.020691208016557994,0.023271330588135297,0.003841215005341684,2.750654400047812e-08,6.186370337469946e-07,1.2728137572650315e-07,6.167881773236371e-07,-3.793146704730917e-08,4.8174401565168405e-08
CESM,38.3038153588,26.3725707982,2014-05-24T09:25:18.800000Z,6.86,40.3,25.67,12.0,343.0,87.0,-5.0,1.125743610810158,-1.0358302053658213,-0.43856596947759363,-0.04488154796652294,-0.00011655527946885513,0.0011187936318910463,-4.488154796652294e-05,-1.560294273063391e-09,-2.2877969222672516e-08,9.348786916234233e-09,5.408877373409283e-10,-5.546694316080687e-10,-8.293451640786408e-09
DEI1,39.0508993781,28.662686939600007,2014-05-24T09:25:18.800000Z,6.86,40.3,25.67,12.0,343.0,87.0,-5.0,2.044410707804411,-1.7219961740269616,0.9116147597241179,0.6191145682948977,0.0013752444872565661,0.0013802227696211866,0.0006191145682948977,5.508518217214133e-09,7.891650157641622e-09,7.413889620735347e-09,6.102900452692318e-09,2.525461068809538e-09,2.7931778744758725e-09
DEIR,39.0348514814,28.648405101399987,2014-05-24T09:25:18.800000Z,6.86,40.3,25.67,12.0,343.0,87.0,-5.0,2.0478911341264814,-1.7230657450548925,0.9167099102656245,0.6201173081547273,0.001380429716256515,0.0013797559276323978,0.0006201173081547273,5.682118918209485e-09,7.800392841036427e-09,7.552440657890062e-09,5.958016071339058e-09,2.596753934327816e-09,2.736547039858569e-09
DION,38.0785341305,23.932647686700022,2014-05-24T09:25:18.800000Z,6.86,40.3,25.67,12.0,343.0,87.0,-5.0,2.0758086863703156,-0.9657442482643172,-1.727231025301287,-0.6268913259820306,-0.0013694029519513151,0.0014285392969764499,-0.0006268913259820305,-4.4059537250544405e-09,8.75557592399359e-09,6.6229313805628045e-09,-7.437612905573365e-09,-2.075039890230588e-09,3.3075804233254585e-09
DRAM,41.1657209951,24.0688904507,2014-05-24T09:25:18.800000Z,6.86,40.3,25.67,12.0,343.0,87.0,-5.0,5.937583074887896,4.947516883242404,-2.876718999737253,1.5815995883210408,-0.0041975340063160616,-0.00389026268769066,0.0015815995883210407,4.3041916402717694e-08,2.6278005490565812e-08,4.7042746504437804e-08,1.4685707650464181e-08,-1.5214436215641658e-08,-5.316277288989303e-09
DUTH,41.1402123929,24.916802209799982,2014-05-24T09:25:18.800000Z,6.86,40.3,25.67,12.0,343.0,87.0,-5.0,8.266698191154916,7.02316333108211,-4.016921420261422,1.6964133081394244,-0.0058947752941804765,-0.00554185033203991,0.0016964133081394245,1.4267896364779375e-07,-1.0661472611336034e-07,1.1065316168495762e-07,-3.7237400222702934e-08,-3.324165247860025e-08,3.489035805259772e-08
DYNG,38.0785525841,23.932434752099997,2014-05-24T09:25:18.800000Z,6.86,40.3,25.67,12.0,343.0,87.0,-5.0,2.075667736120843,-0.9657053958885007,-1.7270980728485756,-0.6268507684350361,-0.0013692871682238206,0.0014284632707294298,-0.0006268507684350361,-4.404246479190027e-09,8.755438091104695e-09,6.6210910756539416e-09,-7.43817512010676e-09,-2.0742674307595433e-09,3.3077512771694585e-09
EDES,40.8042949199,22.0512495232,2014-05-24T09:25:18.800000Z,6.86,40.3,25.67,12.0,343.0,87.0,-5.0,1.5068381579283026,1.2975637328912262,-0.6108471757584468,0.4623368048750562,-0.0009635269799161961,-0.0010622719388274637,0.0004623368048750562,-2.7697372019601467e-11,6.951169312495956e-09,-6.904404521798001e-11,7.792202455933946e-09,4.436646987874272e-10,-3.277159870686987e-09
EDIR,41.6767128926,26.551012440399973,2014-05-24T09:25:18.800000Z,6.86,40.3,25.67,12.0,343.0,87.0,-5.0,5.918647183065538,2.635279182100679,5.069171385165976,-1.5457003518828811,0.004077191637534838,-0.004002212294545948,-0.001545700351882881,-3.155504110215679e-08,3.594642541560466e-08,4.0808119073759323e-08,-2.472215195941272e-08,1.140548881228232e-08,-8.86747131814675e-09
FLO2,40.7798843643,21.401717281800018,2014-05-24T09:25:18.800000Z,6.86,40.3,25.67,12.0,343.0,87.0,-5.0,1.061022307267949,0.9102482796520871,-0.4328204320018617,0.3314858662934808,-0.0006800390788441746,-0.0007439303113952467,0.0003314858662934808,-1.9489569222954897e-10,4.212475334732036e-09,-5.33586920037106e-10,4.834422911261124e-09,4.650374024110659e-10,-2.0940350913304706e-09
GOD1,41.5661061044,23.734247401599987,2014-05-24T09:25:18.800000Z,6.86,40.3,25.67,12.0,343.0,87.0,-5.0,3.3479670425927757,2.7454286645614183,-1.660996997762159,0.9552977229728005,-0.0023911049874527635,-0.0021398379653022603,0.0009552977229728005,2.3101155291836834e-08,5.052998609272419e-09,2.1899387221715272e-08,2.0613561639200944e-09,-8.741591859992642e-09,-2.99497524329102e-10
GODA,40.1971577914,25.903455022199974,2014-05-24T09:25:18.800000Z,6.86,40.3,25.67,12.0,343.0,87.0,-5.0,853.2570057494823,166.46752661374964,-832.2589782265184,87.64173437937146,-0.8445636136079955,0.08413528882075783,0.08764173437937145,1.9819935928507848e-06,6.515918418911905e-06,-2.835639650415474e-06,2.4940275334331824e-06,-8.894163346003505e-07,7.988955498817748e-07
GOUM,40.9467922416,22.4474096335,2014-05-24T09:25:18.800000Z,6.86,40.3,25.67,12.0,343.0,87.0,-5.0,1.9707553787958247,1.6956224814563416,-0.8048895709550803,0.6007444897793562,-0.0012654717601989773,-0.0013862049073608551,0.0006007444897793562,1.26040795923606e-09,9.7265326161767e-09,2.4662449631639986e-09,1.0088438192116682e-08,-3.821336559720754e-10,-4.252706154890887e-09
HALK,38.4654495787,23.6025408699,2014-05-24T09:25:18.800000Z,6.86,40.3,25.67,12.0,343.0,87.0,-5.0,2.142858971164039,-1.0655129932748861,-1.7501912105038255,-0.6271820773393888,-0.0013621903282015069,0.0015306615308149363,-0.0006271820773393888,-8.371210260290694e-10,1.1150596859449784e-08,2.185439148020272e-09,-1.1981296316429706e-08,-1.7518175888369225e-12,4.743561790835529e-09
HAR3,41.9235503811,25.916516465100017,2014-05-24T09:25:18.800000Z,6.86,40.3,25.67,12.0,343.0,87.0,-5.0,4.059257806263347,1.6187657765493995,3.5773387800085925,-1.0294748911114684,0.0029477447793766487,-0.002593946048386253,-0.0010294748911114683,-4.05719245503156e-08,-1.0247604809855632e-08,3.31888103364522e-08,5.5959403640446625e-09,1.2716031717698692e-08,5.94772968435817e-09
HARM,41.8844415837,25.84633229719998,2014-05-24T09:25:18.800000Z,6.86,40.3,25.67,12.0,343.0,87.0,-5.0,4.092053410760705,1.6519049735591664,3.6036300234304,-1.0148703016050025,0.0029631982569782167,-0.0026333240357540033,-0.0010148703016050024,-4.3182072086986835e-08,-1.565933284095356e-08,3.4543158424188446e-08,7.355641337604302e-09,1.3156776063657303e-08,7.717670031951364e-09
IPS1,40.9214661402,26.385508862999984,2014-05-24T09:25:18.800000Z,6.86,40.3,25.67,12.0,343.0,87.0,-5.0,16.691936153547,8.622815438026324,13.936728458209327,-3.1678677936370256,0.01080669245802568,-0.012320744470760592,-0.0031678677936370254,2.424800330938141e-09,2.5010278663127724e-07,2.356374948523127e-08,-2.6702964446923763e-07,-1.0661429060916121e-08,-5.070700497339256e-08
IPS4,40.9219251616,26.38526212310001,2014-05-24T09:25:18.800000Z,6.86,40.3,25.67,12.0,343.0,87.0,-5.0,16.693161991079954,8.622517884217737,13.938186145529627,-3.168723649886143,0.010808173447657055,-0.012320886105165074,-0.003168723649886143,2.1766018263109103e-09,2.5002193168349447e-07,2.4062055003856655e-08,-2.6677862539397683e-07,-1.0556031811777529e-08,-5.067597335128452e-08
IPSA,40.9175332766,26.37978245300002,2014-05-24T09:25:18.800000Z,6.86,40.3,25.67,12.0,343.0,87.0,-5.0,16.91422528676414,8.737336292587727,14.12598804622198,-3.194750894770119,0.010954199644679363,-0.012485595457016996,-0.0031947508947701188,2.3544592552631657e-09,2.550149597892659e-07,2.4181211771884443e-08,-2.7201737876024663e-07,-1.0821204025192176e-08,-5.123217412659407e-08
ISTI,38.9560170889,23.151901877400007,2014-05-24T09:25:18.800000Z,6.86,40.3,25.67,12.0,343.0,87.0,-5.0,1.5826144709710297,-0.7237102166086196,-1.345764811039674,-0.41210333591293336,-0.0010753688994498134,0.001085551074041402,-0.00041210333591293336,2.4269835441403085e-09,9.071681199374983e-09,-8.430959693749089e-09,-1.1238622867581888e-08,3.733687600250826e-09,3.964182325185041e-09
ISTN,40.9909629543,28.831636081800013,2014-05-24T09:25:18.800000Z,6.86,40.3,25.67,12.0,343.0,87.0,-5.0,956.4910728387513,274.4120968971858,-912.4869321611586,83.31129654393813,-0.9528459255462067,0.004363766536609637,0.08331129654393812,-1.6365549633345415e-11,5.340703023332516e-09,-1.2463734300011142e-08,3.8900525181827225e-11,-4.800149212881781e-09,-4.59428288073548e-11
IZMI,38.3948077729,27.081822277699985,2014-05-24T09:25:18.800000Z,6.86,40.3,25.67,12.0,343.0,87.0,-5.0,1.6084431650119497,-1.4141116940193126,0.6600106333564504,0.3895683454387764,0.0010446175543137315,0.0011593533044440552,0.0003895683454387764,1.232810220671384e-08,-1.3609491227262838e-08,1.028127983846835e-08,-3.1513217947831567e-09,4.152590655024441e-09,-5.428869563911936e-09
JGC1,38.0564578466,23.803418974199985,2014-05-24T09:25:18.800000Z,6.86,40.3,25.67,12.0,343.0,87.0,-5.0,1.9495220845649073,-0.9183889618509975,-1.614807791065503,-0.5912646369187826,-0.0012757374241871844,0.001350383838715441,-0.0005912646369187827,-3.464636043000357e-09,8.283515436000215e-09,5.489419618728254e-09,-7.3494374764630925e-09,-1.644611977565652e-09,3.245678053044285e-09
KAL1,40.641903337,22.85687634110002,2014-05-24T09:25:18.800000Z,6.86,40.3,25.67,12.0,343.0,87.0,-5.0,2.4016385071489443,2.0818637227997985,-0.9734403365094949,0.6972265556955335,-0.0015395836690856868,-0.001706289768749203,0.0006972265556955334,-9.135290350345958e-10,1.442478698393162e-08,-1.8177466018196902e-09,1.664110571083629e-08,1.5535737816161375e-09,-6.389573770403714e-09
KAL2,40.6427875418,22.848461085700023,2014-05-24T09:25:18.800000Z,6.86,40.3,25.67,12.0,343.0,87.0,-5.0,2.387730996098493,2.0696390820444224,-0.9678420229156269,0.6936390981500464,-0.001530655836113226,-0.0016962360751439087,0.0006936390981500465,-9.03259788580267e-10,1.4298858045375412e-08,-1.8007199957094811e-09,1.6495107266488742e-08,1.5399780316782237e-09,-6.340199622771503e-09
KATE,40.2700826524,22.521258921100014,2014-05-24T09:25:18.800000Z,6.86,40.3,25.67,12.0,343.0,87.0,-5.0,1.4875722274285732,1.2517062283602012,-0.6925905781519092,0.4079472279061233,-0.0010282911476195977,-0.0009945187312402348,0.0004079472279061233,-2.132895707321837e-09,8.47068119394396e-09,-8.014846681915739e-09,1.0200567631353984e-08,3.450857281880524e-09,-3.881550265217306e-09
KAV1,40.9338005429,24.38731428699998,2014-05-24T09:25:18.800000Z,6.86,40.3,25.67,12.0,343.0,87.0,-5.0,9.772312027608411,8.255298436377585,-4.662476779557974,2.368425715821486,-0.006872364395697161,-0.006531404872332558,0.002368425715821486,7.808733385646322e-08,6.775156482129285e-08,9.354247428340939e-08,4.181393275044763e-08,-2.449131733945862e-08,-1.2919950319241083e-08
KIKA,39.1059919179,27.672205827200003,2014-05-24T09:25:18.800000Z,6.86,40.3,25.67,12.0,343.0,87.0,-5.0,3.55120202894598,-2.936809104393303,1.7337244056852799,0.9901453529022262,0.002516608778982743,0.002301592553877241,0.000990145352902226,2.1115820835806e-08,1.0966143435639722e-08,2.2180082507759363e-08,5.7368704549685526e-09,7.854445868826097e-09,2.279138635267975e-09
KIRL,41.7381230257,27.217951277099985,2014-05-24T09:25:18.800000Z,6.86,40.3,25.67,12.0,343.0,87.0,-5.0,3.785457938929083,1.8701834307317373,3.119248912155373,-1.0499485543755058,0.0024361638519394546,-0.0027004454312334336,-0.0010499485543755058,-4.083974026833511e-09,2.529882241955266e-08,8.867582347548434e-09,-2.5467411845477273e-08,1.3909859804361904e-09,-9.272526905411822e-09
KOM1,41.1224193267,25.39563979349998,2014-05-24T09:25:18.800000Z,6.86,40.3,25.67,12.0,343.0,87.0,-5.0,6.374894669010558,5.271579281632092,3.568905979619485,-0.3356248308495763,0.0018717011407431983,-0.0060846834637174885,-0.0003356248308495763,-6.027144839200148e-08,-3.4069502373469205e-07,1.2229321724018243e-07,2.2199090967712863e-08,8.01744858170068e-09,7.99558123441103e-08
KOMO,41.1199265338,25.4059249801,2014-05-24T09:25:18.800000Z,6.86,40.3,25.67,12.0,343.0,87.0,-5.0,6.546351498931063,5.265755807860036,3.8686738938573644,-0.39987000704199555,0.0021600732417681456,-0.006166758104159953,-0.00039987000704199555,-6.988578999689912e-08,-3.440293769158648e-07,1.2509188513796727e-07,2.5741516237825846e-08,9.58126643368207e-09,8.055566849266876e-08
KORI,37.94156644,22.93094050510001,2014-05-24T09:25:18.800000Z,6.86,40.3,25.67,12.0,343.0,87.0,-5.0,1.240769068950805,-0.611954364612999,-1.0098054506258374,-0.38119901624020236,-0.0007867636142364631,0.0008804534103495354,-0.00038119901624020236,-2.469053257349786e-10,4.9738693905334904e-09,6.190868005236467e-10,-5.45219166126761e-09,1.0042166672459323e-10,2.3235947682739158e-09
KRU1,41.4734796865,25.65192244790001,2014-05-24T09:25:18.800000Z,6.86,40.3,25.67,12.0,343.0,87.0,-5.0,6.250424571826983,2.7098053563922804,5.485765899159369,-1.2771588617656142,0.004453793607950729,-0.004195282477699125,-0.0012771588617656142,-9.458243740261227e-08,-7.252059358517165e-08,7.244297436725281e-08,2.491474262250439e-08,2.2419035146331816e-08,2.52488564886136e-08
KRYO,37.9723055725,22.617881578499976,2014-05-24T09:25:18.800000Z,6.86,40.3,25.67,12.0,343.0,87.0,-5.0,1.0601429882188091,-0.5230719670383989,-0.8635850500629095,-0.3232951191650263,-0.0006729190478580449,0.0007527040430497234,-0.0003232951191650263,2.2414168834975306e-10,4.1474114678939055e-09,-4.4960499401897186e-10,-4.818258710438687e-09,4.749324560169499e-10,2.0202194175653008e-09
KYMI,38.6349290876,24.10519656010001,2014-05-24T09:25:18.800000Z,6.86,40.3,25.67,12.0,343.0,87.0,-5.0,3.1885091085477417,-1.5521140657560288,-2.6338174447505183,-0.9058354872172186,-0.002064937913424103,0.0022543477591298045,-0.0009058354872172186,-4.896443931948409e-09,1.8640515359336022e-08,9.18183019508503e-09,-1.78021175519033e-08,-1.9735918593318e-09,6.917676183003942e-09
LEMN,39.8972205094,25.1805653271,2014-05-24T09:25:18.800000Z,6.86,40.3,25.67,12.0,343.0,87.0,-5.0,32.86974781298163,-17.152713495850023,-27.722904938186225,-4.2006288584669065,-0.021496577756096258,0.024508614470396595,-0.004200628858466907,5.798957005528709e-08,7.044614325425799e-07,-9.912803665491135e-08,-7.649011853784459e-07,7.10423607105601e-08,8.349817025410322e-08
LES4,39.1000831959,26.553788731999987,2014-05-24T09:25:18.800000Z,6.86,40.3,25.67,12.0,343.0,87.0,-5.0,3.976418811118437,-3.491151142405197,1.7195279081111912,0.8166970279890823,0.0026651065274876373,0.0028358631354550856,0.0008166970279890823,5.0361730026444856e-08,-5.7187474225032666e-08,4.003266853143513e-08,-1.4394827757554602e-08,1.287186420121107e-08,-1.916744294244146e-08
LYGO,37.6124995546,23.037670434099997,2014-05-24T09:25:18.800000Z,6.86,40.3,25.67,12.0,343.0,87.0,-5.0,1.1722558786925112,-0.5657204419332424,-0.9583366013864557,-0.36842256330342493,-0.0007510611997147976,0.0008211916550118215,-0.00036842256330342493,-9.305131961135156e-10,4.2159915233676655e-09,1.6901680688013475e-09,-4.194777736559493e-09,-4.2121736713225703e-10,1.894798317649809e-09
MABM,41.9848909247,21.468106073700028,2014-05-24T09:25:18.800000Z,6.86,40.3,25.67,12.0,343.0,87.0,-5.0,1.079691897114274,0.8978218859752792,-0.48547201506775395,0.3520900117073289,-0.0007267569122362261,-0.0007166530589253206,0.0003520900117073289,2.4062941888515902e-09,2.7618673277148263e-09,2.986759631866142e-09,2.080714771494852e-09,-1.2254925533365588e-09,-1.0801358414651487e-09
MARM,40.0937483798,23.780490267599987,2014-05-24T09:25:18.800000Z,6.86,40.3,25.67,12.0,343.0,87.0,-5.0,2.797397715961315,2.0826633330770066,-1.7873728292527,0.5415217369333856,-0.002318184966348724,-0.0014690836094276571,0.0005415217369333855,-7.576212270917866e-09,2.866581659826835e-08,-5.339881838698022e-08,2.6140685265793755e-08,1.8004490903628014e-08,-8.409668825051427e-09
MEN1,37.5610401117,23.38605018049998,2014-05-24T09:25:18.800000Z,6.86,40.3,25.67,12.0,343.0,87.0,-5.0,1.304420516677684,-0.6120143506662349,-1.0763529472464906,-0.4103847607575817,-0.0008503857635275835,0.0008999673803295472,-0.0004103847607575817,-1.875261805271393e-09,4.528254515043725e-09,2.929252558902038e-09,-4.061051321813028e-09,-9.434807437568584e-10,1.89663047442923e-09
MET0,38.0652631395,23.7623150128,2014-05-24T09:25:18.800000Z,6.86,40.3,25.67,12.0,343.0,87.0,-5.0,1.9265442457249278,-0.9122977034069399,-1.5930661229268945,-0.5843166599344279,-0.001256726675158859,0.0013382020907183878,-0.0005843166599344279,-3.179211840195806e-09,8.262930753694718e-09,5.158754820517912e-09,-7.460575875221327e-09,-1.5051540501701076e-09,3.2767343438215108e-09
MNTS,38.426584765,26.71742915110002,2014-05-24T09:25:18.800000Z,6.86,40.3,25.67,12.0,343.0,87.0,-5.0,1.3843697523150031,-1.3364517206110185,0.275091060878773,0.233883128560276,0.0006538115576759651,0.0011976262941121862,0.00023388312856027597,8.684655171717925e-09,-2.1999499936070874e-08,1.0555602114503175e-08,-2.5768849893385057e-09,2.7539219881681915e-09,-8.080180419393377e-09
MOUD,39.8735947713,25.268779123900003,2014-05-24T09:25:18.800000Z,6.86,40.3,25.67,12.0,343.0,87.0,-5.0,39.89751792062263,-20.394231550547925,-33.924290461583425,-5.0029763508494876,-0.026479264066139763,0.029421603259762785,-0.005002976350849488,-9.319390308502339e-08,8.492488855895991e-07,2.2396278327473597e-07,-8.222643482173622e-07,3.1491942550128765e-08,8.602203206823087e-08
MTNA,37.6126904064,23.32955878849998,2014-05-24T09:25:18.800000Z,6.86,40.3,25.67,12.0,343.0,87.0,-5.0,1.309240986979812,-0.6195905044733674,-1.0776522238906854,-0.4109565099834414,-0.0008494132149579059,0.0009075923639745853,-0.0004109565099834414,-1.6754068724587692e-09,4.6724973504468654e-09,2.7213445331474373e-09,-4.309645157394219e-09,-8.341547865397489e-10,1.9873137896080843e-09
MYKN,37.4416454862,25.329069226700028,2014-05-24T09:25:18.800000Z,6.86,40.3,25.67,12.0,343.0,87.0,-5.0,1.283602728795936,-0.5311647888688598,-1.106962213129848,-0.3743455504489693,-0.0009032956742771603,0.0008315998431118188,-0.0003743455504489693,-7.28362109704335e-09,-2.551977545847782e-09,6.000666229561951e-09,9.909225382962742e-10,-2.8719630938673895e-09,-1.3797807463480855e-09
NEG1,41.4837411233,22.089008849200013,2014-05-24T09:25:18.800000Z,6.86,40.3,25.67,12.0,343.0,87.0,-5.0,1.573361487383018,1.3270642529391146,-0.6828365452093517,0.4980974714629757,-0.0010409958736374847,-0.001069435771784366,0.0004980974714629757,3.066274222655551e-09,5.717759203988878e-09,4.361562004396494e-09,4.8298967968809114e-09,-1.5412935943540701e-09,-2.303423357431734e-09
NOA1,38.0470629094,23.864033881199987,2014-05-24T09:25:18.800000Z,6.86,40.3,25.67,12.0,343.0,87.0,-5.0,1.9854065695288472,-0.9281374618530486,-1.648674279078531,-0.6018913687187849,-0.0013052739221777188,0.001369607978464249,-0.0006018913687187849,-3.898252503181895e-09,8.319044801416501e-09,5.976464040841694e-09,-7.194643898553972e-09,-1.8499116584974568e-09,3.201173184694365e-09
NVRK,41.3357359645,23.869731234899973,2014-05-24T09:25:18.800000Z,6.86,40.3,25.67,12.0,343.0,87.0,-5.0,4.4572555055404495,3.6867848033784134,-2.1776663865266275,1.2379473188470906,-0.003160424280245877,-0.0028890018079368307,0.0012379473188470907,3.052493504485928e-08,1.4232840629854568e-08,3.1631822675643524e-08,7.4006681231442584e-09,-1.1338749785131445e-08,-2.7377449376612827e-09
ORE1,41.4141841606,26.5457880029,2014-05-24T09:25:18.800000Z,6.86,40.3,25.67,12.0,343.0,87.0,-5.0,8.099325199111572,3.813835481178777,6.864878162883871,-1.9817102240806406,0.005449858055108336,-0.00565428514030808,-0.0019817102240806406,-3.408555681716078e-08,6.850045659043149e-08,5.349930083756269e-08,-5.537049570250293e-08,1.1411966819608845e-08,-1.7148474519121335e-08
PRIL,41.3435676742,21.5596416217,2014-05-24T09:25:18.800000Z,6.86,40.3,25.67,12.0,343.0,87.0,-5.0,1.2371482228581707,1.05167090811915,-0.5169427934178035,0.39660329634329944,-0.0008018336681203664,-0.0008545784453866112,0.00039660329634329944,1.332923988339617e-09,4.455035298904378e-09,2.1581471628760075e-09,4.2382136605232105e-09,-6.651053979647851e-10,-1.9859774006423237e-09
PRKV,39.2457022095,26.265000586300005,2014-05-24T09:25:18.800000Z,6.86,40.3,25.67,12.0,343.0,87.0,-5.0,4.230900056678963,-4.0632427193887715,1.0267883371596536,0.5798962007231203,0.002169899770763095,0.0035854944806588684,0.0005798962007231203,5.1425923639833957e-08,-1.2790228098530545e-07,5.5657018459289076e-08,-1.708593265322362e-08,1.081407605798831e-08,-3.615218419162246e-08
PRO2,41.0684409335,23.386980109499973,2014-05-24T09:25:18.800000Z,6.86,40.3,25.67,12.0,343.0,87.0,-5.0,3.7756821564655776,3.2194749859868206,-1.6452504713232352,1.0880751113174076,-0.00251464424044201,-0.0025977745558065646,0.0010880751113174075,1.0873465953401876e-08,2.180365122026764e-08,1.623458667690182e-08,1.829624028928432e-08,-4.738124005134375e-09,-7.4682637997347e-09
PTOL,40.5113945817,21.678138458700005,2014-05-24T09:25:18.800000Z,6.86,40.3,25.67,12.0,343.0,87.0,-5.0,1.095491902999979,0.9361917557044024,-0.46359636168414187,0.32973613621022774,-0.0007170553850883721,-0.0007597421699046536,0.00032973613621022774,-7.596458826884129e-10,4.788875614995151e-09,-2.2706005520594665e-09,5.758079171663025e-09,1.1797589049925798e-09,-2.386966077986575e-09
ROZH,41.6955521748,24.740502577799987,2014-05-24T09:25:18.800000Z,6.86,40.3,25.67,12.0,343.0,87.0,-5.0,2.5737054127293657,2.399955881561425,-0.777108093479281,0.5101708822739248,-0.001444831358043075,-0.002067884805594278,0.0005101708822739248,2.4685835079595233e-08,-4.546078881569324e-08,2.436052602557435e-08,-7.361313250552524e-09,-7.554590799888244e-09,1.571904695002505e-08
SALH,38.4830903176,28.12354599150001,2014-05-24T09:25:18.800000Z,6.86,40.3,25.67,12.0,343.0,87.0,-5.0,1.816813657674703,-1.4813931490348018,0.9020999928065453,0.5408343625219435,0.001295799953823007,0.0011529148011458212,0.0005408343625219435,9.70948394430886e-09,1.276237593171274e-09,8.880830511189311e-09,4.3994541957924774e-10,3.890335911425174e-09,-1.2418579771042162e-10
SAN9,41.5505621693,23.267824098999995,2014-05-24T09:25:18.800000Z,6.86,40.3,25.67,12.0,343.0,87.0,-5.0,2.764268228677673,2.2871530874198633,-1.316255265877856,0.8231534910521852,-0.0019274400179511986,-0.0018023795791801689,0.0008231534910521851,1.337149658069619e-08,8.428696048004015e-09,1.4578192859734678e-08,5.091119865741507e-09,-5.635714408685244e-09,-2.3004302397883955e-09
SARY,41.4429694316,27.916436478399987,2014-05-24T09:25:18.800000Z,6.86,40.3,25.67,12.0,343.0,87.0,-5.0,2.102441363439297,0.9671139552494734,1.7846492075238305,-0.5477020087116466,0.001423911769123265,-0.0014466366060991165,-0.0005477020087116466,3.7091650273663243e-09,1.3824766040174357e-08,-1.2601431984637112e-08,-1.7122648777563693e-08,-5.227395836179035e-09,-5.912582327620226e-09
SERR,41.2859119597,23.03745487290001,2014-05-24T09:25:18.800000Z,6.86,40.3,25.67,12.0,343.0,87.0,-5.0,2.777621787912921,2.3444110211555182,-1.2352011091141906,0.8325851191416933,-0.0018666681420427267,-0.0018808335555160482,0.0008325851191416933,8.456096532223951e-09,1.2675812258606868e-08,1.1495060280868043e-08,9.961888296515077e-09,-3.858195411928633e-09,-4.432418127473724e-09
SKO1,41.999682373,21.407432605,2014-05-24T09:25:18.800000Z,6.86,40.3,25.67,12.0,343.0,87.0,-5.0,1.0522227493369058,0.8750170880420575,-0.472604864869324,0.3437476568041789,-0.0007077845176581832,-0.000698606712841443,0.0003437476568041789,2.3005003611733148e-09,2.667311692104556e-09,2.861777840324818e-09,2.0165473639346825e-09,-1.175852180081596e-09,-1.0489683878888002e-09
SKOP,39.1217927588,23.72779715659999,2014-05-24T09:25:18.800000Z,6.86,40.3,25.67,12.0,343.0,87.0,-5.0,2.7282736933413063,-1.346401806884408,-2.26589709492326,-0.7045494130399552,-0.001773238376877373,0.001950054647729793,-0.0007045494130399552,4.239853715895902e-09,1.8964736215849836e-08,-1.1106598465778884e-08,-2.3799471393585044e-08,5.2814006145937405e-09,7.852984094074668e-09
SKP1,39.1174027823,23.733093354999998,2014-05-24T09:25:18.800000Z,6.86,40.3,25.67,12.0,343.0,87.0,-5.0,2.7444031505993305,-1.3568967259320786,-2.2773986890003686,-0.7099543221318825,-0.0017811689886215731,0.001963453729395881,-0.0007099543221318824,4.19736233572586e-09,1.9069764286673472e-08,-1.0860498892427758e-08,-2.390921303186724e-08,5.207473785879005e-09,7.898024601525301e-09
SKYR,38.9044471697,24.56458582670001,2014-05-24T09:25:18.800000Z,6.86,40.3,25.67,12.0,343.0,87.0,-5.0,5.180238638656356,-2.4506534731191487,-4.350695889420611,-1.3786280085272897,-0.003444089437181219,0.003615591945481278,-0.0013786280085272898,-1.656904689382191e-08,3.5293035452128285e-08,2.640528729876714e-08,-2.964643517389764e-08,-6.303376101198693e-09,1.0733568403621936e-08
SLVR,41.0760828179,28.24847233029999,2014-05-24T09:25:18.800000Z,6.86,40.3,25.67,12.0,343.0,87.0,-5.0,1.2026121543302293,0.11206129218745674,1.1845532312921128,-0.1747910260038732,0.0011000303377457499,-0.00045349459424592897,-0.0001747910260038732,1.671709496571616e-09,9.18854237412868e-09,-1.9891663822830002e-08,-5.627786734294444e-09,-7.352955251908828e-09,-1.9850910272483494e-09
SMLN,41.5750322977,24.711539507099985,2014-05-24T09:25:18.800000Z,6.86,40.3,25.67,12.0,343.0,87.0,-5.0,3.3260602861591604,2.972522161647405,-1.3039343293892838,0.7256337163613,-0.0021160399723854084,-0.002461403577658894,0.0007256337163613,3.7643146388417296e-08,-4.865189231665483e-08,3.2076992608882144e-08,-1.0655318515460762e-08,-1.113202090517089e-08,1.6939998368005016e-08
SMOL,41.5774998308,24.705874318899987,2014-05-24T09:25:18.800000Z,6.86,40.3,25.67,12.0,343.0,87.0,-5.0,3.3213781140892396,2.964631402423155,-1.3090130996522578,0.7273224384386212,-0.002118589789816383,-0.0024523727183649036,0.0007273224384386212,3.754690076515831e-08,-4.799271138229491e-08,3.190545847074289e-08,-1.0593086883000787e-08,-1.11233707291214e-08,1.6751382654701753e-08
SPET,37.267393172,23.155387420299974,2014-05-24T09:25:18.800000Z,6.86,40.3,25.67,12.0,343.0,87.0,-5.0,1.0673405013642236,-0.49930139970418125,-0.8795143192441036,-0.34112815824915294,-0.0006951021250287681,0.0007346294040415646,-0.00034112815824915294,-1.4002239915013656e-09,3.3382875925748617e-09,2.1624021197511016e-09,-2.9975274531855128e-09,-7.221171845959737e-10,1.435479567812781e-09
STRA,40.5202235378,23.790767596699997,2014-05-24T09:25:18.800000Z,6.86,40.3,25.67,12.0,343.0,87.0,-5.0,5.150654123876209,4.515747229832879,-2.08538261727589,1.337327259732353,-0.003314538030586789,-0.0037087236818039715,0.001337327259732353,-4.991814628791953e-09,4.6229160439211406e-08,-9.362111177180374e-09,5.416169201507503e-08,5.809133744322733e-09,-1.7399007548514027e-08
SVIL,41.7609151624,26.196166508899974,2014-05-24T09:25:18.800000Z,6.86,40.3,25.67,12.0,343.0,87.0,-5.0,5.584321548384908,2.2536779456914315,4.905428466821628,-1.4291096633065221,0.004032172909980147,-0.0035894114211137973,-0.0014291096633065221,-4.8589986286901325e-08,1.3417067178201252e-08,4.711882676824744e-08,-4.688305401778845e-09,1.568406060815841e-08,-4.659609779113029e-10
SVRT,40.8747144531,28.97351283749998,2014-05-24T09:25:18.800000Z,6.86,40.3,25.67,12.0,343.0,87.0,-5.0,956.53539219738,274.25464684242553,-912.5744257112533,83.38022996675171,-0.9528835621033593,0.004539917411196914,0.0833802299667517,-5.594827843650294e-10,4.974484205109313e-09,-1.1196163191461553e-08,1.8743287546122355e-09,-4.364099465356871e-09,6.157790069354133e-10
SYR1,37.4403388988,24.93940574390001,2014-05-24T09:25:18.800000Z,6.86,40.3,25.67,12.0,343.0,87.0,-5.0,1.433164574508006,-0.5758739054883812,-1.238871504073916,-0.43304426909486493,-0.001016369475919987,0.0009129219282320578,-0.00043304426909486493,-7.164669286771675e-09,1.4670069592253904e-10,6.408510374741151e-09,1.6662333716605687e-11,-2.959962726480223e-09,-3.678020360545432e-10
SYRO,37.3930522719,24.884953749500028,2014-05-24T09:25:18.800000Z,6.86,40.3,25.67,12.0,343.0,87.0,-5.0,1.3975269384613556,-0.5620292816799972,-1.2070068019185833,-0.424663643819094,-0.000989944885965599,0.000890365911349944,-0.000424663643819094,-6.747621790128351e-09,3.9199571117421225e-10,6.106374197426263e-09,-1.1079832197269675e-10,-2.817065162723389e-09,-2.481907829537841e-10
TEIS,41.0743176281,23.55528687719999,2014-05-24T09:25:18.800000Z,6.86,40.3,25.67,12.0,343.0,87.0,-5.0,4.288326378270568,3.646735758263411,-1.9009985646860623,1.2154282755620291,-0.0028841363188050195,-0.0029315925583350277,0.001215428275562029,1.5107010114259385e-08,2.520251731914371e-08,2.144111804812348e-08,2.008720614095751e-08,-6.3587560254034305e-09,-8.089653759274445e-09
TEKR,40.9583356342,27.496498510899983,2014-05-24T09:25:18.800000Z,6.86,40.3,25.67,12.0,343.0,87.0,-5.0,2.540251335365315,0.6859480287465132,2.399895504208077,-0.47207384757673443,0.0020944796899726725,-0.0013576369019555057,-0.00047207384757673443,6.706829261697973e-09,2.454735651005233e-08,-4.695901574106062e-08,-2.260737410257887e-08,-1.5742146944516556e-08,-6.882229155860905e-09
THI1,38.3165538407,23.318384063700023,2014-05-24T09:25:18.800000Z,6.86,40.3,25.67,12.0,343.0,87.0,-5.0,1.7096781754287824,-0.8501228800229457,-1.3933695495811074,-0.5087355410221748,-0.001083934051422375,0.0012203583838387155,-0.0005087355410221747,-2.391027878639429e-10,8.119557036980086e-09,8.170122515754463e-10,-8.982922051895032e-09,2.767384823943151e-10,3.6330960554789584e-09
THIV,38.3162066042,23.31695002390001,2014-05-24T09:25:18.800000Z,6.86,40.3,25.67,12.0,343.0,87.0,-5.0,1.708023057496635,-0.8493101162469837,-1.3920088283651972,-0.5082583133939265,-0.0010828704163827751,0.0012191832975927408,-0.0005082583133939264,-2.356515528654531e-10,8.10929174172954e-09,8.094278774171619e-10,-8.973668740635403e-09,2.788978516065635e-10,3.62940561684361e-09
THS1,40.6274706714,22.95935845690002,2014-05-24T09:25:18.800000Z,6.86,40.3,25.67,12.0,343.0,87.0,-5.0,2.5768756770185917,2.2360158935416643,-1.0442676924674774,0.7416374890118136,-0.001652385939387102,-0.0018329983079692358,0.0007416374890118135,-1.0934882926477842e-09,1.6068297258728213e-08,-2.1540694808928107e-09,1.8573807492617623e-08,1.771305874581656e-09,-7.03221803282787e-09
VAL5,41.3182598823,22.56343924980001,2014-05-24T09:25:18.800000Z,6.86,40.3,25.67,12.0,343.0,87.0,-5.0,2.0818916094914814,1.7628610768296928,-0.9021853231794741,0.6423823939908646,-0.0013781748135386351,-0.001422058970960538,0.0006423823939908646,4.4886870861926806e-09,8.84579405515682e-09,6.536483620628139e-09,7.517439210364237e-09,-2.173834904152816e-09,-3.428045641236208e-09
VDVA,41.3132272473,22.558289453399997,2014-05-24T09:25:18.800000Z,6.86,40.3,25.67,12.0,343.0,87.0,-5.0,2.077900174132491,1.760001567401334,-0.8994075662993998,0.6411939223730025,-0.0013746823917770712,-0.00142013654600881,0.0006411939223730026,4.424763578581659e-09,8.851915997827458e-09,6.46950503924556e-09,7.549390573717387e-09,-2.144048842959994e-09,-3.4390693895872925e-09
VELE,41.7181891825,21.770523213200025,2014-05-24T09:25:18.800000Z,6.86,40.3,25.67,12.0,343.0,87.0,-5.0,1.2977045735161934,1.0868869789032622,-0.5729680917548245,0.4176379066203398,-0.0008657071100230951,-0.000871875529381394,0.0004176379066203398,2.717166526044151e-09,3.989302235175396e-09,3.6088712490640275e-09,3.1912091248233236e-09,-1.3819246156446368e-09,-1.5920944823948344e-09
VER6,40.4964078545,22.23951788390002,2014-05-24T09:25:18.800000Z,6.86,40.3,25.67,12.0,343.0,87.0,-5.0,1.4791226633729784,1.2691468153136463,-0.6229220667529506,0.4347853645593827,-0.0009667659529668526,-0.00103156634893381,0.0004347853645593827,-1.229279790325928e-09,7.508296295509584e-09,-3.523660512512038e-09,9.05960570542893e-09,1.793991964936919e-09,-3.6070111694515805e-09
VERI,40.5228372814,22.20442075530002,2014-05-24T09:25:18.800000Z,6.86,40.3,25.67,12.0,343.0,87.0,-5.0,1.4702022385702183,1.2625766656078277,-0.6152119434680335,0.43463668779083336,-0.0009574717995306514,-0.0010275375054111802,0.00043463668779083336,-1.1166086824172855e-09,7.365644991558103e-09,-3.1243910805181026e-09,8.852268277714603e-09,1.638438604162388e-09,-3.5448711786045565e-09
VINI,41.88406471,22.504528124099977,2014-05-24T09:25:18.800000Z,6.86,40.3,25.67,12.0,343.0,87.0,-5.0,1.6541944636418064,1.3644469220377817,-0.777734010639273,0.5193974674368163,-0.0011426764058484196,-0.001077439662292401,0.0005193974674368163,5.98962535042905e-09,4.026554349039206e-09,6.587277409586782e-09,2.5685032195069456e-09,-2.756046213119832e-09,-1.2747696138891657e-09
VOLO,39.3529735531,22.887242326399985,2014-05-24T09:25:18.800000Z,6.86,40.3,25.67,12.0,343.0,87.0,-5.0,1.0237843171068246,-0.160404699818161,-0.9991030295770755,-0.15555640944699828,-0.0009085491833502601,0.0004455052332660303,-0.00015555640944699828,1.453435968684583e-09,6.918911346589271e-09,-1.4174847199705693e-08,-4.9769257646567545e-09,5.52923008123847e-09,1.5971618237148972e-09
XIOS,38.3679125922,26.12716884560001,2014-05-24T09:25:18.800000Z,6.86,40.3,25.67,12.0,343.0,87.0,-5.0,1.4471342431898133,-1.0430975219782914,-0.9767768393614119,-0.22814925715949896,-0.0006291241363030053,0.0012831010308588797,-0.00022814925715949896,-8.72678250143915e-09,-2.5127811148464085e-08,1.1677769516598595e-08,2.7313301565017107e-09,-2.8343082296469387e-09,-9.085878585151867e-09
YEN1,39.9289807391,27.258899585099982,2014-05-24T09:25:18.800000Z,6.86,40.3,25.67,12.0,343.0,87.0,-5.0,7.822241814453109,-6.914396580172014,3.171439644724448,1.8222396976672155,0.005054436730773659,0.005685031118879691,0.0018222396976672155,7.431447999848877e-09,7.778964370753825e-08,2.2410606876498446e-08,7.98415142268885e-08,-1.996206484551649e-10,2.182474963653887e-08
YENC,39.9359400202,27.24170605910001,2014-05-24T09:25:18.800000Z,6.86,40.3,25.67,12.0,343.0,87.0,-5.0,7.984752896174431,-7.0625609647561545,3.2341887361450445,1.848387040384425,0.005157763059031595,0.005808375365693397,0.001848387040384425,7.234690188287972e-09,8.039682812288324e-08,2.2525107590566898e-08,8.276598851455698e-08,-4.527333572277497e-10,2.2373648228510146e-08
YLDZ,41.0232384763,28.888744027500024,2014-05-24T09:25:18.800000Z,6.86,40.3,25.67,12.0,343.0,87.0,-5.0,956.5188060369069,274.4457240174971,-912.5067913166639,83.30142058661544,-0.9528747485695561,0.0043374150166759495,0.08330142058661544,6.845431210092634e-11,5.043629157154701e-09,-1.1738249369227934e-08,-2.433797747188421e-10,-4.543505133937431e-09,-1.4069807724137444e-10
YSST,40.8657784477,28.99086930160001,2014-05-24T09:25:18.800000Z,6.86,40.3,25.67,12.0,343.0,87.0,-5.0,956.5408455437592,274.2440693333474,-912.5828597249149,83.38527307236255,-0.9528885350263749,0.004552498600386479,0.08338527307236256,-5.942206960244586e-10,4.926943999917713e-09,-1.1023799533641072e-08,1.9958522242578417e-09,-4.3041858886487805e-09,6.61298938194998e-10
